,,,,,,,,,28.66,19.99,20.53*29
$GPGSV,1,1,04,12,71,275,26,14,30,307,30,24,72,170,28,25,30,266,37*70
$GLGSV,1,1,03,68,07,254,,69,20,302,35,79,24,304,41*5C
$GNGLL,,,,,232851.80,V,N*53
$GNRMC,232852.00,V,,,,,,,011215,,,N*69
$GNVTG,,,,,,,,,N*2E
$GNGGA,232852.00,,,,,0,05,19.98,,,,,,*78
$GNGSA,A,1,14,12,25,,,,,,,,,,28.65,19.98,20.53*2B
$GNGSA,A,1,79,69,,,,,,,,,,,28.65,19.98,20.53*2B
$GPGSV,1,1,04,12,71,275,26,14,30,307,30,24,72,170,28,25,30,266,37*70
$GLGSV,1,1,03,68,07,254,,69,20,302,35,79,24,304,41*5C
$GNGLL,,,,,232852.00,V,N*58
$GNRMC,232852.20,V,,,,,,,011215,,,N*6B
$GNVTG,,,,,,,,,N*2E
$GNGGA,232852.20,,,,,0,05,19.98,,,,,,*7A
$GNGSA,A,1,14,12,25,,,,,,,,,,28.64,19.98,20.52*2B
$GNGSA,A,1,79,69,,,,,,,,,,,28.64,19.98,20.52*2B
$GPGSV,1,1,04,12,71,275,26,14,30,307,30,24,72,170,28,25,30,266,37*70
$GLGSV,1,1,04,68,07,254,,69,20,302,35,77,47,105,,79,24,304,41*6C
$GNGLL,,,,,232852.20,V,N*5A
$GNRMC,232852.40,V,,,,,,,011215,,,N*6D
$GNVTG,,,,,,,,,N*2E
$GNGGA,232852.40,,,,,0,05,19.97,,,,,,*73
$GNGSA,A,1,14,12,25,,,,,,,,,,28.64,19.97,20.52*24
$GNGSA,A,1,79,69,,,,,,,,,,,28.64,19.97,20.52*24
$GPGSV,1,1,04,12,71,275,26,14,30,307,30,24,72,170,28,25,30,266,37*70
$GLGSV,1,1,04,68,07,254,,69,20,302,35,77,47,105,,79,24,304,41*6C
$GNGLL,,,,,232852.40,V,N*5C
$GNRMC,232852.60,V,,,,,,,011215,,,N*6F
$GNVTG,,,,,,,,,N*2E
$GNGGA,232852.60,,,,,0,05,19.97,,,,,,*71
$GNGSA,A,1,14,12,25,,,,,,,,,,28.63,19.97,20.52*23
$GNGSA,A,1,79,69,,,,,,,,,,,28.63,19.97,20.52*23
$GPGSV,1,1,04,12,71,275,26,14,30,307,30,24,72,170,28,25,30,266,37*70
$GLGSV,1,1,04,68,07,254,,69,20,302,35,77,47,105,,79,24,304,41*6C
$GNGLL,,,,,232852.60,V,N*5E
$GNRMC,232852.80,V,,,,,,,011215,,,N*61
$GNVTG,,,,,,,,,N*2E
$GNGGA,232852.80,,,,,0,05,19.96,,,,,,*7E
$GNGSA,A,1,14,12,25,,,,,,,,,,28.62,19.96,20.51*20
$GNGSA,A,1,79,69,,,,,,,,,,,28.62,19.96,20.51*20
$GPGSV,1,1,04,12,71,275,26,14,30,307,30,24,72,170,28,25,30,266,37*70
$GLGSV,1,1,04,68,07,254,,69,20,302,36,77,47,105,,79,24,304,42*6C
$GNGLL,,,,,232852.80,V,N*50
$GNRMC,232853.00,V,,,,,,,011215,,,N*68
$GNVTG,,,,,,,,,N*2E
$GNGGA,232853.00,,,,,0,05,19.96,,,,,,*77
$GNGSA,A,1,14,12,25,,,,,,,,,,28.62,19.96,20.51*20
$GNGSA,A,1,79,69,,,,,,,,,,,28.62,19.96,20.51*20
$GPGSV,1,1,04,12,71,275,26,14,30,307,30,24,72,170,28,25,30,266,37*70
$GLGSV,1,1,04,68,07,254,,69,20,302,36,77,47,105,,79,24,304,42*6C
$GNGLL,,,,,232853.00,V,N*59
$GNRMC,232853.20,V,,,,,,,011215,,,N*6A
$GNVTG,,,,,,,,,N*2E
$GNGGA,232853.20,,,,,0,05,19.95,,,,,,*76
$GNGSA,A,1,14,12,25,,,,,,,,,,28.61,19.95,20.50*21
$GNGSA,A,1,79,69,,,,,,,,,,,28.61,19.95,20.50*21
$GPGSV,1,1,04,12,71,275,26,14,30,307,30,24,72,170,28,25,30,266,37*70
$GLGSV,1,1,04,68,07,254,,69,20,302,36,77,47,105,,79,24,304,42*6C
$GNGLL,,,,,232853.20,V,N*5B
$GNRMC,232853.40,V,,,,,,,011215,,,N*6C
$GNVTG,,,,,,,,,N*2E
$GNGGA,232853.40,,,,,0,05,19.95,,,,,,*70
$GNGSA,A,1,14,12,25,,,,,,,,,,28.60,19.95,20.50*20
$GNGSA,A,1,79,69,,,,,,,,,,,28.60,19.95,20.50*20
$GPGSV,1,1,04,12,71,275,26,14,30,307,30,24,72,170,28,25,30,266,37*70
$GLGSV,1,1,04,68,07,254,,69,20,302,36,77,47,105,,79,24,304,41*6F
$GNGLL,,,,,232853.40,V,N*5D
$GNRMC,232853.60,V,,,,,,,011215,,,N*6E
$GNVTG,,,,,,,,,N*2E
$GNGGA,232853.60,,,,,0,05,19.94,,,,,,*73
$GNGSA,A,1,14,12,25,,,,,,,,,,28.60,19.94,20.49*29
$GNGSA,A,1,79,69,,,,,,,,,,,28.60,19.94,20.49*29
$GPGSV,1,1,04,12,71,275,26,14,30,307,30,24,72,170,28,25,30,266,37*70
$GLGSV,1,1,04,68,07,254,,69,20,302,36,77,47,105,,79,24,304,41*6F
$GNGLL,,,,,232853.60,V,N*5F
$GNRMC,232853.80,V,,,,,,,011215,,,N*60
$GNVTG,,,,,,,,,N*2E
$GNGGA,232853.80,,,,,0,05,19.94,,,,,,*7D
$GNGSA,A,1,14,12,25,,,,,,,,,,28.59,19.94,20.49*23
$GNGSA,A,1,79,69,,,,,,,,,,,28.59,19.94,20.49*23
$GPGSV,1,1,04,12,71,275,26,14,30,307,30,24,72,170,28,25,30,266,37*70
$GLGSV,1,1,04,68,07,254,,69,20,302,36,77,47,105,,79,24,304,41*6F
$GNGLL,,,,,232853.80,V,N*51
$GNRMC,232854.00,V,,,,,,,011215,,,N*6F
$GNVTG,,,,,,,,,N*2E
$GNGGA,232854.00,,,,,0,05,19.93,,,,,,*75
$GNGSA,A,1,14,12,25,,,,,,,,,,28.58,19.93,20.48*24
$GNGSA,A,1,79,69,,,,,,,,,,,28.58,19.93,20.48*24
$GPGSV,1,1,04,12,71,275,26,14,30,307,30,24,72,170,28,25,30,266,37*70
$GLGSV,1,1,04,68,07,254,,69,20,302,36,77,47,105,,79,24,304,41*6F
$GNGLL,,,,,232854.00,V,N*5E
$GNRMC,232854.20,V,,,,,,,011215,,,N*6D
$GNVTG,,,,,,,,,N*2E
$GNGGA,232854.20,,,,,0,05,19.93,,,,,,*77
$GNGSA,A,1,14,12,25,,,,,,,,,,28.58,19.93,20.48*24
$GNGSA,A,1,79,69,,,,,,,,,,,28.58,19.93,20.48*24
$GPGSV,1,1,04,12,71,275,26,14,30,307,30,24,72,170,28,25,30,266,37*70
$GLGSV,1,1,04,68,07,254,,69,20,302,36,77,47,105,,79,24,304,41*6F
$GNGLL,,,,,232854.20,V,N*5C
$GNRMC,232854.40,V,,,,,,,011215,,,N*6B
$GNVTG,,,,,,,,,N*2E
$GNGGA,232854.40,,,,,0,05,19.92,,,,,,*70
$GNGSA,A,1,14,12,25,,,,,,,,,,28.57,19.92,20.48*2A
$GNGSA,A,1,79,69,,,,,,,,,,,28.57,19.92,20.48*2A
$GPGSV,1,1,04,12,71,275,26,14,30,307,30,24,72,170,28,25,30,266,37*70
$GLGSV,1,1,04,68,07,254,,69,20,302,35,77,47,105,,79,24,304,41*6C
$GNGLL,,,,,232854.40,V,N*5A
$GNRMC,232854.60,V,,,,,,,011215,,,N*69
$GNVTG,,,,,,,,,N*2E
$GNGGA,232854.60,,,,,0,05,19.92,,,,,,*72
$GNGSA,A,1,14,12,25,,,,,,,,,,28.56,19.92,20.47*24
$GNGSA,A,1,79,69,,,,,,,,,,,28.56,19.92,20.47*24
$GPGSV,1,1,04,12,71,275,27,14,30,307,30,24,72,170,28,25,30,266,37*71
$GLGSV,1,1,04,68,07,254,,69,20,302,35,77,47,105,,79,24,304,41*6C
$GNGLL,,,,,232854.60,V,N*58
$GNRMC,232854.80,V,,,,,,,011215,,,N*67
$GNVTG,,,,,,,,,N*2E
$GNGGA,232854.80,,,,,0,05,19.91,,,,,,*7F
$GNGSA,A,1,14,12,25,,,,,,,,,,28.56,19.91,20.47*27
$GNGSA,A,1,79,69,,,,,,,,,,,28.56,19.91,20.47*27
$GPGSV,1,1,04,12,71,275,27,14,30,307,30,24,72,170,28,25,30,266,37*71
$GLGSV,1,1,04,68,07,254,,69,20,302,35,77,47,105,,79,24,304,41*6C
$GNGLL,,,,,232854.80,V,N*56
$GNRMC,232855.00,V,,,,,,,011215,,,N*6E
$GNVTG,,,,,,,,,N*2E
$GNGGA,232855.00,,,,,0,05,19.91,,,,,,*76
$GNGSA,A,1,14,12,25,,,,,,,,,,28.55,19.91,20.46*25
$GNGSA,A,1,79,69,,,,,,,,,,,28.55,19.91,20.46*25
$GPGSV,1,1,04,12,71,275,27,14,30,307,30,24,72,170,28,25,30,266,37*71
$GLGSV,1,1,04,68,07,254,,69,20,302,35,77,47,105,,79,24,304,41*6C
$GNGLL,,,,,232855.00,V,N*5F
$GNRMC,232855.20,V,,,,,,,011215,,,N*6C
$GNVTG,,,,,,,,,N*2E
$GNGGA,232855.20,,,,,0,05,19.90,,,,,,*75
$GNGSA,A,1,14,12,25,,,,,,,,,,28.54,19.90,20.46*25
$GNGSA,A,1,79,69,,,,,,,,,,,28.54,19.90,20.46*25
$GPGSV,1,1,04,12,71,275,27,14,30,307,30,24,72,170,28,25,30,266,37*71
$GLGSV,1,1,04,68,07,254,,69,20,302,35,77,47,105,,79,24,304,41*6C
$GNGLL,,,,,232855.20,V,N*5D
$GNRMC,232855.40,V,,,,,,,011215,,,N*6A
$GNVTG,,,,,,,,,N*2E
$GNGGA,232855.40,,,,,0,05,19.90,,,,,,*73
$GNGSA,A,1,14,12,25,,,,,,,,,,28.54,19.90,20.45*26
$GNGSA,A,1,79,69,,,,,,,,,,,28.54,19.90,20.45*26
$GPGSV,1,1,04,12,71,275,27,14,30,307,30,24,72,170,28,25,30,266,37*71
$GLGSV,1,1,04,68,07,254,,69,20,302,35,77,47,105,,79,24,304,41*6C
$GNGLL,,,,,232855.40,V,N*5B
$GNRMC,232855.60,V,,,,,,,011215,,,N*68
$GNVTG,,,,,,,,,N*2E
$GNGGA,232855.60,,,,,0,05,19.89,,,,,,*79
$GNGSA,A,1,14,12,25,,,,,,,,,,28.53,19.89,20.45*29
$GNGSA,A,1,79,69,,,,,,,,,,,28.53,19.89,20.45*29
$GPGSV,1,1,04,12,71,275,27,14,30,307,30,24,72,170,28,25,30,266,37*71
$GLGSV,1,1,04,68,07,254,,69,20,302,35,77,47,105,,79,24,304,41*6C
$GNGLL,,,,,232855.60,V,N*59
$GNRMC,232855.80,V,,,,,,,011215,,,N*66
$GNVTG,,,,,,,,,N*2E
$GNGGA,232855.80,,,,,0,05,19.89,,,,,,*77
$GNGSA,A,1,14,12,25,,,,,,,,,,28.52,19.89,20.45*28
$GNGSA,A,1,79,69,,,,,,,,,,,28.52,19.89,20.45*28
$GPGSV,1,1,04,12,71,275,27,14,30,307,30,24,72,170,28,25,30,266,37*71
$GLGSV,1,1,04,68,07,254,,69,20,302,35,77,47,105,,79,24,304,41*6C
$GNGLL,,,,,232855.80,V,N*57
$GNRMC,232856.00,V,,,,,,,011215,,,N*6D
$GNVTG,,,,,,,,,N*2E
$GNGGA,232856.00,,,,,0,05,19.88,,,,,,*7D
$GNGSA,A,1,14,12,25,,,,,,,,,,28.52,19.88,20.44*28
$GNGSA,A,1,79,69,,,,,,,,,,,28.52,19.88,20.44*28
$GPGSV,1,1,04,12,71,275,27,14,30,307,30,24,72,170,28,25,30,266,37*71
$GLGSV,1,1,04,68,07,254,,69,20,302,35,77,47,105,,79,24,304,41*6C
$GNGLL,,,,,232856.00,V,N*5C
$GNRMC,232856.20,V,,,,,,,011215,,,N*6F
$GNVTG,,,,,,,,,N*2E
$GNGGA,232856.20,,,,,0,05,19.88,,,,,,*7F
$GNGSA,A,1,14,12,25,,,,,,,,,,28.51,19.88,20.44*2B
$GNGSA,A,1,79,69,,,,,,,,,,,28.51,19.88,20.44*2B
$GPGSV,1,1,04,12,71,275,27,14,30,307,30,24,72,170,28,25,30,266,37*71
$GLGSV,2,1,05,68,07,254,,69,20,302,35,77,47,105,,78,68,331,*64
$GLGSV,2,2,05,79,24,304,41*5A
$GNGLL,,,,,232856.20,V,N*5E
$GNRMC,232856.40,V,,,,,,,011215,,,N*69
$GNVTG,,,,,,,,,N*2E
$GNGGA,232856.40,,,,,0,05,19.87,,,,,,*76
$GNGSA,A,1,14,12,25,,,,,,,,,,28.50,19.87,20.43*22
$GNGSA,A,1,79,69,,,,,,,,,,,28.50,19.87,20.43*22
$GPGSV,1,1,04,12,71,275,27,14,30,307,30,24,72,170,28,25,30,266,37*71
$GLGSV,2,1,05,68,07,254,,69,20,302,35,77,47,105,,78,68,331,*64
$GLGSV,2,2,05,79,24,305,41*5B
$GNGLL,,,,,232856.40,V,N*58
$GNRMC,232856.60,V,,,,,,,011215,,,N*6B
$GNVTG,,,,,,,,,N*2E
$GNGGA,232856.60,,,,,0,05,19.87,,,,,,*74
$GNGSA,A,1,14,12,25,,,,,,,,,,28.50,19.87,20.43*22
$GNGSA,A,1,79,69,,,,,,,,,,,28.50,19.87,20.43*22
$GPGSV,1,1,04,12,71,275,27,14,30,307,30,24,72,170,28,25,30,266,37*71
$GLGSV,2,1,05,68,07,254,,69,20,302,35,77,47,105,,78,68,331,*64
$GLGSV,2,2,05,79,24,305,41*5B
$GNGLL,,,,,232856.60,V,N*5A
$GNRMC,232856.80,V,,,,,,,011215,,,N*65
$GNVTG,,,,,,,,,N*2E
$GNGGA,232856.80,,,,,0,05,19.86,,,,,,*7B
$GNGSA,A,1,14,12,25,,,,,,,,,,28.49,19.86,20.42*2A
$GNGSA,A,1,79,69,,,,,,,,,,,28.49,19.86,20.42*2A
$GPGSV,1,1,04,12,71,275,27,14,30,307,30,24,72,170,28,25,30,266,37*71
$GLGSV,2,1,05,68,07,254,,69,20,302,35,77,47,105,,78,68,331,*64
$GLGSV,2,2,05,79,24,305,41*5B
$GNGLL,,,,,232856.80,V,N*54
$GNRMC,232857.00,V,,,,,,,011215,,,N*6C
$GNVTG,,,,,,,,,N*2E
$GNGGA,232857.00,,,,,0,05,19.86,,,,,,*72
$GNGSA,A,1,14,12,25,,,,,,,,,,28.48,19.86,20.42*2B
$GNGSA,A,1,79,69,,,,,,,,,,,28.48,19.86,20.42*2B
$GPGSV,1,1,04,12,71,275,27,14,30,307,29,24,72,170,28,25,30,266,37*79
$GLGSV,2,1,05,68,07,254,,69,20,302,35,77,47,105,,78,68,331,*64
$GLGSV,2,2,05,79,24,305,40*5A
$GNGLL,,,,,232857.00,V,N*5D
$GNRMC,232857.20,V,,,,,,,011215,,,N*6E
$GNVTG,,,,,,,,,N*2E
$GNGGA,232857.20,,,,,0,05,19.85,,,,,,*73
$GNGSA,A,1,14,12,25,,,,,,,,,,28.48,19.85,20.41*2B
$GNGSA,A,1,79,69,,,,,,,,,,,28.48,19.85,20.41*2B
$GPGSV,1,1,04,12,71,276,28,14,30,307,30,24,72,170,28,25,30,266,37*7D
$GLGSV,2,1,05,68,07,254,,69,20,302,35,77,47,105,,78,68,331,*64
$GLGSV,2,2,05,79,24,305,40*5A
$GNGLL,,,,,232857.20,V,N*5F
$GNRMC,232857.40,V,,,,,,,011215,,,N*68
$GNVTG,,,,,,,,,N*2E
$GNGGA,232857.40,,,,,0,05,19.85,,,,,,*75
$GNGSA,A,1,14,12,25,,,,,,,,,,28.47,19.85,20.41*24
$GNGSA,A,1,79,69,,,,,,,,,,,28.47,19.85,20.41*24
$GPGSV,1,1,04,12,71,276,28,14,30,307,29,24,72,170,28,25,30,266,37*75
$GLGSV,2,1,05,68,07,254,,69,20,302,35,77,47,105,,78,68,331,*64
$GLGSV,2,2,05,79,24,305,40*5A
$GNGLL,,,,,232857.40,V,N*59
$GNRMC,232857.60,V,,,,,,,011215,,,N*6A
$GNVTG,,,,,,,,,N*2E
$GNGGA,232857.60,,,,,0,05,19.84,,,,,,*76
$GNGSA,A,1,14,12,25,,,,,,,,,,28.46,19.84,20.41*24
$GNGSA,A,1,79,69,,,,,,,,,,,28.46,19.84,20.41*24
$GPGSV,1,1,04,12,71,276,28,14,30,307,29,24,72,170,28,25,30,266,37*75
$GLGSV,2,1,05,68,07,254,,69,20,302,34,77,47,105,,78,68,331,*65
$GLGSV,2,2,05,79,24,305,40*5A
$GNGLL,,,,,232857.60,V,N*5B
$GNRMC,232857.80,V,,,,,,,011215,,,N*64
$GNVTG,,,,,,,,,N*2E
$GNGGA,232857.80,,,,,0,05,19.84,,,,,,*78
$GNGSA,A,1,14,12,25,,,,,,,,,,28.46,19.84,20.40*25
$GNGSA,A,1,79,69,,,,,,,,,,,28.46,19.84,20.40*25
$GPGSV,1,1,04,12,71,276,28,14,30,307,29,24,72,170,28,25,30,266,37*75
$GLGSV,2,1,05,68,07,254,,69,20,302,34,77,47,105,,78,68,331,*65
$GLGSV,2,2,05,79,24,305,40*5A
$GNGLL,,,,,232857.80,V,N*55
$GNRMC,232858.00,V,,,,,,,011215,,,N*63
$GNVTG,,,,,,,,,N*2E
$GNGGA,232858.00,,,,,0,05,19.83,,,,,,*78
$GNGSA,A,1,14,12,25,,,,,,,,,,28.45,19.83,20.40*21
$GNGSA,A,1,79,69,,,,,,,,,,,28.45,19.83,20.40*21
$GPGSV,1,1,04,12,71,276,28,14,30,307,29,24,72,170,28,25,30,266,37*75
$GLGSV,2,1,05,68,07,254,,69,20,302,34,77,47,105,,78,68,331,*65
$GLGSV,2,2,05,79,24,305,40*5A
$GNGLL,,,,,232858.00,V,N*52
$GNRMC,232858.20,V,,,,,,,011215,,,N*61
$GNVTG,,,,,,,,,N*2E
$GNGGA,232858.20,,,,,0,05,19.83,,,,,,*7A
$GNGSA,A,1,14,12,25,,,,,,,,,,28.44,19.83,20.39*2E
$GNGSA,A,1,79,69,,,,,,,,,,,28.44,19.83,20.39*2E
$GPGSV,1,1,04,12,71,276,28,14,30,307,29,24,72,170,28,25,30,266,37*75
$GLGSV,2,1,05,68,07,254,,69,20,302,34,77,47,105,,78,68,331,*65
$GLGSV,2,2,05,79,24,305,40*5A
$GNGLL,,,,,232858.20,V,N*50
$GNRMC,232858.40,V,,,,,,,011215,,,N*67
$GNVTG,,,,,,,,,N*2E
$GNGGA,232858.40,,,,,0,05,19.83,,,,,,*7C
$GNGSA,A,1,14,12,25,,,,,,,,,,28.44,19.83,20.39*2E
$GNGSA,A,1,79,69,,,,,,,,,,,28.44,19.83,20.39*2E
$GPGSV,1,1,04,12,71,276,28,14,30,307,29,24,72,170,28,25,30,266,37*75
$GLGSV,2,1,05,68,07,254,,69,20,302,34,77,47,105,,78,68,331,*65
$GLGSV,2,2,05,79,24,305,40*5A
$GNGLL,,,,,232858.40,V,N*56
$GNRMC,232858.60,V,,,,,,,011215,,,N*65
$GNVTG,,,,,,,,,N*2E
$GNGGA,232858.60,,,,,0,05,19.82,,,,,,*7F
$GNGSA,A,1,14,12,25,,,,,,,,,,28.43,19.82,20.38*29
$GNGSA,A,1,79,69,,,,,,,,,,,28.43,19.82,20.38*29
$GPGSV,1,1,04,12,71,276,28,14,30,307,29,24,72,170,28,25,30,266,37*75
$GLGSV,2,1,05,68,07,254,,69,20,302,34,77,47,105,,78,68,331,*65
$GLGSV,2,2,05,79,24,305,40*5A
$GNGLL,,,,,232858.60,V,N*54
$GNRMC,232858.80,V,,,,,,,011215,,,N*6B
$GNVTG,,,,,,,,,N*2E
$GNGGA,232858.80,,,,,0,05,19.82,,,,,,*71
$GNGSA,A,1,14,12,25,,,,,,,,,,28.43,19.82,20.38*29
$GNGSA,A,1,79,69,,,,,,,,,,,28.43,19.82,20.38*29
$GPGSV,1,1,04,12,71,276,29,14,30,307,29,24,72,170,28,25,30,266,37*74
$GLGSV,2,1,05,68,07,254,,69,20,302,34,77,47,105,,78,68,331,*65
$GLGSV,2,2,05,79,24,305,40*5A
$GNGLL,,,,,232858.80,V,N*5A
$GNRMC,232859.00,V,,,,,,,011215,,,N*62
$GNVTG,,,,,,,,,N*2E
$GNGGA,232859.00,,,,,0,05,19.81,,,,,,*7B
$GNGSA,A,1,14,12,25,,,,,,,,,,28.42,19.81,20.38*2B
$GNGSA,A,1,79,69,,,,,,,,,,,28.42,19.81,20.38*2B
$GPGSV,1,1,04,12,71,276,29,14,30,307,29,24,72,170,28,25,30,266,37*74
$GLGSV,2,1,05,68,07,254,,69,20,302,34,77,47,105,,78,68,331,*65
$GLGSV,2,2,05,79,24,305,40*5A
$GNGLL,,,,,232859.00,V,N*53
$GNRMC,232859.20,V,,,,,,,011215,,,N*60
$GNVTG,,,,,,,,,N*2E
$GNGGA,232859.20,,,,,0,05,19.81,,,,,,*79
$GNGSA,A,1,14,12,25,,,,,,,,,,28.41,19.81,20.37*27
$GNGSA,A,1,79,69,,,,,,,,,,,28.41,19.81,20.37*27
$GPGSV,1,1,04,12,71,276,29,14,30,307,29,24,72,170,28,25,30,266,37*74
$GLGSV,2,1,05,68,07,254,,69,20,302,34,77,47,105,,78,68,331,*65
$GLGSV,2,2,05,79,24,305,40*5A
$GNGLL,,,,,232859.20,V,N*51
$GNRMC,232859.40,V,,,,,,,011215,,,N*66
$GNVTG,,,,,,,,,N*2E
$GNGGA,232859.40,,,,,0,05,19.80,,,,,,*7E
$GNGSA,A,1,14,12,25,,,,,,,,,,28.41,19.80,20.37*26
$GNGSA,A,1,79,69,,,,,,,,,,,28.41,19.80,20.37*26
$GPGSV,1,1,04,12,71,276,29,14,30,307,28,24,72,170,28,25,30,266,37*75
$GLGSV,2,1,05,68,07,254,,69,20,302,34,77,47,105,,78,68,331,*65
$GLGSV,2,2,05,79,24,305,40*5A
$GNGLL,,,,,232859.40,V,N*57
$GNRMC,232859.60,V,,,,,,,011215,,,N*64
$GNVTG,,,,,,,,,N*2E
$GNGGA,232859.60,,,,,0,05,19.80,,,,,,*7C
$GNGSA,A,1,14,12,25,,,,,,,,,,28.40,19.80,20.36*26
$GNGSA,A,1,79,69,,,,,,,,,,,28.40,19.80,20.36*26
$GPGSV,1,1,04,12,71,276,29,14,30,307,28,24,72,170,28,25,30,266,37*75
$GLGSV,2,1,05,68,07,254,,69,20,302,34,77,47,105,,78,68,331,*65
$GLGSV,2,2,05,79,24,305,40*5A
$GNGLL,,,,,232859.60,V,N*55
$GNRMC,232859.80,V,,,,,,,011215,,,N*6A
$GNVTG,,,,,,,,,N*2E
$GNGGA,232859.80,,,,,0,05,19.79,,,,,,*74
$GNGSA,A,1,14,12,25,,,,,,,,,,28.39,19.79,20.36*2E
$GNGSA,A,1,79,69,,,,,,,,,,,28.39,19.79,20.36*2E
$GPGSV,1,1,04,12,71,276,29,14,30,307,28,24,72,170,28,25,30,266,37*75
$GLGSV,2,1,05,68,07,254,,69,20,302,34,77,47,105,,78,68,331,*65
$GLGSV,2,2,05,79,24,305,40*5A
$GNGLL,,,,,232859.80,V,N*5B
$GNRMC,232900.00,V,,,,,,,011215,,,N*6F
$GNVTG,,,,,,,,,N*2E
$GNGGA,232900.00,,,,,0,05,19.79,,,,,,*71
$GNGSA,A,1,14,12,25,,,,,,,,,,28.39,19.79,20.35*2D
$GNGSA,A,1,79,69,,,,,,,,,,,28.39,19.79,20.35*2D
$GPGSV,1,1,04,12,71,276,29,14,30,307,28,24,72,170,27,25,30,266,37*7A
$GLGSV,2,1,05,68,07,254,,69,20,302,34,77,47,105,,78,68,331,*65
$GLGSV,2,2,05,79,24,305,40*5A
$GNGLL,,,,,232900.00,V,N*5E
$GNRMC,232900.20,V,,,,,,,011215,,,N*6D
$GNVTG,,,,,,,,,N*2E
$GNGGA,232900.20,,,,,0,05,19.78,,,,,,*72
$GNGSA,A,1,14,12,25,,,,,,,,,,28.38,19.78,20.35*2D
$GNGSA,A,1,79,69,,,,,,,,,,,28.38,19.78,20.35*2D
$GPGSV,1,1,04,12,71,276,29,14,30,307,28,24,72,170,27,25,30,266,37*7A
$GLGSV,2,1,05,68,07,254,,69,20,302,34,77,47,105,,78,68,331,*65
$GLGSV,2,2,05,79,24,305,40*5A
$GNGLL,,,,,232900.20,V,N*5C
$GNRMC,232900.40,V,,,,,,,011215,,,N*6B
$GNVTG,,,,,,,,,N*2E
$GNGGA,232900.40,,,,,0,05,19.78,,,,,,*74
$GNGSA,A,1,14,12,25,,,,,,,,,,28.37,19.78,20.35*22
$GNGSA,A,1,79,69,,,,,,,,,,,28.37,19.78,20.35*22
$GPGSV,1,1,04,12,71,276,29,14,30,307,28,24,72,170,27,25,30,266,37*7A
$GLGSV,2,1,05,68,07,254,,69,20,302,34,77,47,105,,78,68,331,*65
$GLGSV,2,2,05,79,24,305,40*5A
$GNGLL,,,,,232900.40,V,N*5A
$GNRMC,232900.60,V,,,,,,,011215,,,N*69
$GNVTG,,,,,,,,,N*2E
$GNGGA,232900.60,,,,,0,05,19.77,,,,,,*79
$GNGSA,A,1,14,12,25,,,,,,,,,,28.37,19.77,20.34*2C
$GNGSA,A,1,79,69,,,,,,,,,,,28.37,19.77,20.34*2C
$GPGSV,1,1,04,12,71,276,29,14,30,307,28,24,72,170,27,25,30,266,37*7A
$GLGSV,2,1,05,68,07,254,,69,20,302,34,77,47,105,,78,68,331,*65
$GLGSV,2,2,05,79,24,305,40*5A
$GNGLL,,,,,232900.60,V,N*58
$GNRMC,232900.80,V,,,,,,,011215,,,N*67
$GNVTG,,,,,,,,,N*2E
$GNGGA,232900.80,,,,,0,05,19.77,,,,,,*77
$GNGSA,A,1,14,12,25,,,,,,,,,,28.36,19.77,20.34*2D
$GNGSA,A,1,79,69,,,,,,,,,,,28.36,19.77,20.34*2D
$GPGSV,1,1,04,12,71,276,29,14,30,307,28,24,72,170,27,25,30,266,37*7A
$GLGSV,2,1,05,68,07,254,,69,20,302,34,77,47,105,,78,68,331,*65
$GLGSV,2,2,05,79,24,305,40*5A
$GNGLL,,,,,232900.80,V,N*56
$GNRMC,232901.00,V,,,,,,,011215,,,N*6E
$GNVTG,,,,,,,,,N*2E
$GNGGA,232901.00,,,,,0,05,19.76,,,,,,*7F
$GNGSA,A,1,14,12,25,,,,,,,,,,28.35,19.76,20.33*28
$GNGSA,A,1,79,69,,,,,,,,,,,28.35,19.76,20.33*28
$GPGSV,1,1,04,12,71,276,29,14,30,307,28,24,72,170,27,25,30,266,37*7A
$GLGSV,2,1,05,68,07,254,,69,20,302,34,77,47,105,,78,68,331,*65
$GLGSV,2,2,05,79,24,305,40*5A
$GNGLL,,,,,232901.00,V,N*5F
$GNRMC,232901.20,A,5212.88174,N,02110.57899,E,0.208,,011215,,,A*65
$GNVTG,,T,,M,0.208,N,0.386,K,A*3A
$GNGGA,232901.20,5212.88174,N,02110.57899,E,1,06,3.65,116.6,M,34.1,M,,*45
$GNGSA,A,3,14,24,12,25,,,,,,,,,5.91,3.65,4.65*11
$GNGSA,A,3,79,69,,,,,,,,,,,5.91,3.65,4.65*17
$GPGSV,1,1,04,12,71,276,29,14,30,307,28,24,72,170,27,25,30,266,37*7A
$GLGSV,2,1,05,68,07,254,,69,20,302,34,77,47,105,21,78,68,331,*66
$GLGSV,2,2,05,79,24,305,40*5A
$GNGLL,5212.88174,N,02110.57899,E,232901.20,A,A*70
$GNRMC,232901.40,A,5212.88161,N,02110.57964,E,0.325,,011215,,,A*6A
$GNVTG,,T,,M,0.325,N,0.601,K,A*3E
$GNGGA,232901.40,5212.88161,N,02110.57964,E,1,06,3.65,115.8,M,34.1,M,,*49
$GNGSA,A,3,14,24,12,25,,,,,,,,,5.91,3.65,4.65*11
$GNGSA,A,3,79,69,,,,,,,,,,,5.91,3.65,4.65*17
$GPGSV,1,1,04,12,71,276,29,14,30,307,28,24,72,170,27,25,30,266,37*7A
$GLGSV,2,1,05,68,07,254,,69,20,302,33,77,47,105,21,78,68,331,*61
$GLGSV,2,2,05,79,24,305,40*5A
$GNGLL,5212.88161,N,02110.57964,E,232901.40,A,A*71
$GNRMC,232901.60,A,5212.88163,N,02110.57961,E,0.166,,011215,,,A*6A
$GNVTG,,T,,M,0.166,N,0.307,K,A*38
$GNGGA,232901.60,5212.88163,N,02110.57961,E,1,06,3.65,115.9,M,34.1,M,,*4D
$GNGSA,A,3,14,24,12,25,,,,,,,,,5.91,3.65,4.65*11
$GNGSA,A,3,79,69,,,,,,,,,,,5.91,3.65,4.65*17
$GPGSV,1,1,04,12,71,276,29,14,30,307,28,24,72,170,27,25,30,266,37*7A
$GLGSV,2,1,05,68,07,254,,69,20,302,33,77,47,105,21,78,68,331,*61
$GLGSV,2,2,05,79,24,305,40*5A
$GNGLL,5212.88163,N,02110.57961,E,232901.60,A,A*74
$GNRMC,232901.80,A,5212.88158,N,02110.57995,E,0.197,,011215,,,A*69
$GNVTG,,T,,M,0.197,N,0.364,K,A*33
$GNGGA,232901.80,5212.88158,N,02110.57995,E,1,06,3.65,115.5,M,34.1,M,,*4C
$GNGSA,A,3,14,24,12,25,,,,,,,,,5.91,3.65,4.65*11
$GNGSA,A,3,79,69,,,,,,,,,,,5.91,3.65,4.65*17
$GPGSV,1,1,04,12,71,276,29,14,30,307,28,24,72,170,27,25,30,266,37*7A
$GLGSV,2,1,05,68,07,254,,69,20,302,33,77,47,105,21,78,68,331,*61
$GLGSV,2,2,05,79,24,305,40*5A
$GNGLL,5212.88158,N,02110.57995,E,232901.80,A,A*79
$GNRMC,232902.00,A,5212.88147,N,02110.58042,E,0.150,,011215,,,A*6B
$GNVTG,,T,,M,0.150,N,0.278,K,A*34
$GNGGA,232902.00,5212.88147,N,02110.58042,E,1,06,3.65,114.9,M,34.1,M,,*48
$GNGSA,A,3,14,24,12,25,,,,,,,,,5.91,3.65,4.65*11
$GNGSA,A,3,79,69,,,,,,,,,,,5.91,3.65,4.65*17
$GPGSV,1,1,04,12,71,276,30,14,30,307,28,24,72,170,27,25,30,266,37*72
$GLGSV,2,1,05,68,07,254,,69,20,302,33,77,47,105,21,78,68,331,*61
$GLGSV,2,2,05,79,24,305,40*5A
$GNGLL,5212.88147,N,02110.58042,E,232902.00,A,A*70
$GNRMC,232902.20,A,5212.88143,N,02110.58067,E,0.196,,011215,,,A*60
$GNVTG,,T,,M,0.196,N,0.363,K,A*35
$GNGGA,232902.20,5212.88143,N,02110.58067,E,1,06,3.65,114.7,M,34.1,M,,*47
$GNGSA,A,3,14,24,12,25,,,,,,,,,5.91,3.65,4.65*11
$GNGSA,A,3,79,69,,,,,,,,,,,5.91,3.65,4.65*17
$GPGSV,1,1,04,12,71,276,30,14,30,307,28,24,72,170,27,25,30,266,37*72
$GLGSV,2,1,05,68,07,254,,69,20,302,33,77,47,105,21,78,68,331,*61
$GLGSV,2,2,05,79,24,305,40*5A
$GNGLL,5212.88143,N,02110.58067,E,232902.20,A,A*71
$GNRMC,232902.40,A,5212.88141,N,02110.58081,E,0.082,,011215,,,A*68
$GNVTG,,T,,M,0.082,N,0.153,K,A*30
$GNGGA,232902.40,5212.88141,N,02110.58081,E,1,06,3.65,114.5,M,34.1,M,,*49
$GNGSA,A,3,14,24,12,25,,,,,,,,,5.91,3.65,4.64*10
$GNGSA,A,3,79,69,,,,,,,,,,,5.91,3.65,4.64*16
$GPGSV,1,1,04,12,71,276,30,14,30,307,28,24,72,170,27,25,30,266,37*72
$GLGSV,2,1,05,68,07,254,,69,20,302,33,77,47,105,21,78,68,331,*61
$GLGSV,2,2,05,79,24,305,40*5A
$GNGLL,5212.88141,N,02110.58081,E,232902.40,A,A*7D
$GNRMC,232902.60,A,5212.88133,N,02110.58117,E,0.147,,011215,,,A*69
$GNVTG,,T,,M,0.147,N,0.273,K,A*39
$GNGGA,232902.60,5212.88133,N,02110.58117,E,1,06,3.65,114.0,M,34.1,M,,*45
$GNGSA,A,3,14,24,12,25,,,,,,,,,5.91,3.65,4.64*10
$GNGSA,A,3,79,69,,,,,,,,,,,5.91,3.65,4.64*16
$GPGSV,1,1,04,12,71,276,30,14,30,307,28,24,72,170,27,25,30,266,37*72
$GLGSV,2,1,05,68,07,254,,69,20,302,33,77,47,105,21,78,68,331,*61
$GLGSV,2,2,05,79,24,305,40*5A
$GNGLL,5212.88133,N,02110.58117,E,232902.60,A,A*74
$GNRMC,232902.80,A,5212.88128,N,02110.58144,E,0.076,,011215,,,A*68
$GNVTG,,T,,M,0.076,N,0.140,K,A*39
$GNGGA,232902.80,5212.88128,N,02110.58144,E,1,06,3.65,113.7,M,34.1,M,,*47
$GNGSA,A,3,14,24,12,25,,,,,,,,,5.91,3.65,4.64*10
$GNGSA,A,3,79,69,,,,,,,,,,,5.91,3.65,4.64*16
$GPGSV,1,1,04,12,71,276,30,14,30,307,28,24,72,170,27,25,30,266,37*72
$GLGSV,2,1,05,68,07,254,,69,20,302,33,77,47,105,21,78,68,331,*61
$GLGSV,2,2,05,79,24,305,40*5A
$GNGLL,5212.88128,N,02110.58144,E,232902.80,A,A*76
$GNRMC,232903.00,A,5212.88126,N,02110.58157,E,0.067,,011215,,,A*6D
$GNVTG,,T,,M,0.067,N,0.123,K,A*3C
$GNGGA,232903.00,5212.88126,N,02110.58157,E,1,06,3.65,113.5,M,34.1,M,,*40
$GNGSA,A,3,14,24,12,25,,,,,,,,,5.91,3.65,4.64*10
$GNGSA,A,3,79,69,,,,,,,,,,,5.91,3.65,4.64*16
$GPGSV,1,1,04,12,71,276,30,14,30,307,28,24,72,170,27,25,30,266,37*72
$GLGSV,2,1,05,68,07,254,,69,20,302,33,77,47,105,21,78,68,331,*61
$GLGSV,2,2,05,79,24,305,40*5A
$GNGLL,5212.88126,N,02110.58157,E,232903.00,A,A*73
$GNRMC,232903.20,A,5212.88122,N,02110.58175,E,0.125,,011215,,,A*6C
$GNVTG,,T,,M,0.125,N,0.231,K,A*3B
$GNGGA,232903.20,5212.88122,N,02110.58175,E,1,06,3.65,113.3,M,34.1,M,,*40
$GNGSA,A,3,14,24,12,25,,,,,,,,,5.91,3.65,4.64*10
$GNGSA,A,3,79,69,,,,,,,,,,,5.91,3.65,4.64*16
$GPGSV,1,1,04,12,71,276,30,14,30,307,28,24,72,170,27,25,30,266,37*72
$GLGSV,2,1,05,68,07,254,,69,20,302,33,77,47,105,20,78,68,331,*60
$GLGSV,2,2,05,79,24,305,40*5A
$GNGLL,5212.88122,N,02110.58175,E,232903.20,A,A*75
$GNRMC,232903.40,A,5212.88114,N,02110.58216,E,0.156,,011215,,,A*6D
$GNVTG,,T,,M,0.156,N,0.290,K,A*34
$GNGGA,232903.40,5212.88114,N,02110.58216,E,1,06,3.65,112.7,M,34.1,M,,*40
$GNGSA,A,3,14,24,12,25,,,,,,,,,5.91,3.65,4.64*10
$GNGSA,A,3,79,69,,,,,,,,,,,5.91,3.65,4.64*16
$GPGSV,1,1,04,12,71,276,30,14,30,307,28,24,72,170,27,25,30,266,37*72
$GLGSV,2,1,05,68,07,254,,69,20,302,33,77,47,105,20,78,68,331,*60
$GLGSV,2,2,05,79,24,305,40*5A
$GNGLL,5212.88114,N,02110.58216,E,232903.40,A,A*70
$GNRMC,232903.60,A,5212.88114,N,02110.58223,E,0.230,,011215,,,A*6A
$GNVTG,,T,,M,0.230,N,0.427,K,A*3D
$GNGGA,232903.60,5212.88114,N,02110.58223,E,1,06,3.65,112.7,M,34.1,M,,*44
$GNGSA,A,3,14,24,12,25,,,,,,,,,5.91,3.65,4.64*10
$GNGSA,A,3,79,69,,,,,,,,,,,5.91,3.65,4.64*16
$GPGSV,1,1,04,12,71,276,30,14,30,307,28,24,72,170,27,25,30,266,37*72
$GLGSV,2,1,05,68,07,254,,69,20,302,33,77,47,105,20,78,68,331,*60
$GLGSV,2,2,05,79,24,305,40*5A
$GNGLL,5212.88114,N,02110.58223,E,232903.60,A,A*74
$GNRMC,232903.80,A,5212.88106,N,02110.58254,E,0.304,,011215,,,A*61
$GNVTG,,T,,M,0.304,N,0.564,K,A*3D
$GNGGA,232903.80,5212.88106,N,02110.58254,E,1,06,3.65,112.2,M,34.1,M,,*4C
$GNGSA,A,3,14,24,12,25,,,,,,,,,5.91,3.65,4.64*10
$GNGSA,A,3,79,69,,,,,,,,,,,5.91,3.65,4.64*16
$GPGSV,1,1,04,12,71,276,31,14,30,307,28,24,72,170,27,25,30,266,37*73
$GLGSV,2,1,05,68,07,254,,69,20,302,33,77,47,105,20,78,68,331,*60
$GLGSV,2,2,05,79,24,305,40*5A
$GNGLL,5212.88106,N,02110.58254,E,232903.80,A,A*79
$GNRMC,232904.00,A,5212.88102,N,02110.58277,E,0.374,,011215,,,A*6C
$GNVTG,,T,,M,0.374,N,0.692,K,A*30
$GNGGA,232904.00,5212.88102,N,02110.58277,E,1,06,3.65,111.9,M,34.1,M,,*4E
$GNGSA,A,3,14,24,12,25,,,,,,,,,5.90,3.65,4.64*11
$GNGSA,A,3,79,69,,,,,,,,,,,5.90,3.65,4.64*17
$GPGSV,1,1,04,12,71,276,31,14,30,307,27,24,72,170,27,25,30,266,37*7C
$GLGSV,2,1,05,68,07,254,,69,20,302,33,77,47,105,20,78,68,331,*60
$GLGSV,2,2,05,79,24,305,40*5A
$GNGLL,5212.88102,N,02110.58277,E,232904.00,A,A*73
$GNRMC,232904.20,A,5212.88096,N,02110.58307,E,0.403,,011215,,,A*63
$GNVTG,,T,,M,0.403,N,0.747,K,A*3E
$GNGGA,232904.20,5212.88096,N,02110.58307,E,1,06,3.65,111.5,M,34.1,M,,*4A
$GNGSA,A,3,14,24,12,25,,,,,,,,,5.90,3.65,4.64*11
$GNGSA,A,3,79,69,,,,,,,,,,,5.90,3.65,4.64*17
$GPGSV,1,1,04,12,71,276,31,14,30,307,27,24,72,170,27,25,30,266,37*7C
$GLGSV,2,1,05,68,07,254,,69,20,302,33,77,47,105,20,78,68,331,*60
$GLGSV,2,2,05,79,24,305,40*5A
$GNGLL,5212.88096,N,02110.58307,E,232904.20,A,A*7B
$GNRMC,232904.40,A,5212.88093,N,02110.58320,E,0.437,,011215,,,A*62
$GNVTG,,T,,M,0.437,N,0.809,K,A*3C
$GNGGA,232904.40,5212.88093,N,02110.58320,E,1,06,3.65,111.2,M,34.1,M,,*4B
$GNGSA,A,3,14,24,12,25,,,,,,,,,5.90,3.65,4.64*11
$GNGSA,A,3,79,69,,,,,,,,,,,5.90,3.65,4.64*17
$GPGSV,1,1,04,12,71,276,31,14,30,307,27,24,72,170,27,25,30,266,37*7C
$GLGSV,2,1,05,68,07,254,,69,20,302,33,77,47,105,20,78,68,331,*60
$GLGSV,2,2,05,79,24,305,40*5A
$GNGLL,5212.88093,N,02110.58320,E,232904.40,A,A*7D
$GNRMC,232904.60,A,5212.88089,N,02110.58338,E,0.366,,011215,,,A*61
$GNVTG,,T,,M,0.366,N,0.679,K,A*36
$GNGGA,232904.60,5212.88089,N,02110.58338,E,1,06,3.65,110.9,M,34.1,M,,*41
$GNGSA,A,3,14,24,12,25,,,,,,,,,5.90,3.65,4.64*11
$GNGSA,A,3,79,69,,,,,,,,,,,5.90,3.65,4.64*17
$GPGSV,1,1,04,12,71,276,31,14,30,307,27,24,72,170,27,25,30,266,37*7C
$GLGSV,2,1,05,68,07,254,,69,20,302,33,77,47,105,20,78,68,331,*60
$GLGSV,2,2,05,79,24,305,40*5A
$GNGLL,5212.88089,N,02110.58338,E,232904.60,A,A*7D
$GNRMC,232904.80,A,5212.88081,N,02110.58370,E,0.275,,011215,,,A*68
$GNVTG,,T,,M,0.275,N,0.510,K,A*39
$GNGGA,232904.80,5212.88081,N,02110.58370,E,1,06,3.65,110.4,M,34.1,M,,*46
$GNGSA,A,3,14,24,12,25,,,,,,,,,5.90,3.65,4.64*11
$GNGSA,A,3,79,69,,,,,,,,,,,5.90,3.65,4.64*17
$GPGSV,1,1,04,12,71,276,31,14,30,307,27,24,72,170,27,25,30,266,37*7C
$GLGSV,2,1,05,68,07,254,,69,20,302,33,77,47,105,20,78,68,331,*60
$GLGSV,2,2,05,79,24,305,40*5A
$GNGLL,5212.88081,N,02110.58370,E,232904.80,A,A*77
$GNRMC,232905.00,A,5212.88076,N,02110.58392,E,0.235,,011215,,,A*61
$GNVTG,,T,,M,0.235,N,0.435,K,A*3B
$GNGGA,232905.00,5212.88076,N,02110.58392,E,1,06,3.65,110.0,M,34.1,M,,*4F
$GNGSA,A,3,14,24,12,25,,,,,,,,,5.90,3.65,4.64*11
$GNGSA,A,3,79,69,,,,,,,,,,,5.90,3.65,4.64*17
$GPGSV,1,1,04,12,71,276,31,14,30,307,27,24,72,170,27,25,30,266,37*7C
$GLGSV,2,1,05,68,07,254,,69,20,302,33,77,47,105,20,78,68,331,*60
$GLGSV,2,2,05,79,24,305,40*5A
$GNGLL,5212.88076,N,02110.58392,E,232905.00,A,A*7A
$GNRMC,232905.20,A,5212.88066,N,02110.58430,E,0.126,,011215,,,A*6C
$GNVTG,,T,,M,0.126,N,0.232,K,A*3B
$GNGGA,232905.20,5212.88066,N,02110.58430,E,1,06,3.65,109.3,M,34.1,M,,*48
$GNGSA,A,3,14,24,12,25,,,,,,,,,5.90,3.65,4.64*11
$GNGSA,A,3,79,69,,,,,,,,,,,5.90,3.65,4.64*17
$GPGSV,1,1,04,12,71,276,31,14,30,307,27,24,72,170,27,25,30,266,37*7C
$GLGSV,2,1,05,68,07,254,,69,20,302,33,77,47,105,20,78,68,331,*60
$GLGSV,2,2,05,79,24,305,40*5A
$GNGLL,5212.88066,N,02110.58430,E,232905.20,A,A*76
$GNRMC,232905.40,A,5212.88063,N,02110.58445,E,0.058,,011215,,,A*65
$GNVTG,,T,,M,0.058,N,0.108,K,A*39
$GNGGA,232905.40,5212.88063,N,02110.58445,E,1,06,3.65,109.1,M,34.1,M,,*4B
$GNGSA,A,3,14,24,12,25,,,,,,,,,5.90,3.65,4.64*11
$GNGSA,A,3,79,69,,,,,,,,,,,5.90,3.65,4.64*17
$GPGSV,1,1,04,12,71,276,31,14,30,307,27,24,72,170,27,25,30,266,37*7C
$GLGSV,2,1,05,68,07,254,,69,20,302,33,77,47,105,20,78,68,331,*60
$GLGSV,2,2,05,79,24,305,39*54
$GNGLL,5212.88063,N,02110.58445,E,232905.40,A,A*77
$GNRMC,232905.60,A,5212.88056,N,02110.58472,E,0.116,,011215,,,A*6E
$GNVTG,,T,,M,0.116,N,0.215,K,A*3D
$GNGGA,232905.60,5212.88056,N,02110.58472,E,1,06,3.65,108.7,M,34.1,M,,*4C
$GNGSA,A,3,14,24,12,25,,,,,,,,,5.90,3.65,4.64*11
$GNGSA,A,3,79,69,,,,,,,,,,,5.90,3.65,4.64*17
$GPGSV,1,1,04,12,71,276,31,14,30,307,27,24,72,170,27,25,30,266,37*7C
$GLGSV,2,1,05,68,07,254,,69,20,302,33,77,47,105,20,78,68,331,*60
$GLGSV,2,2,05,79,24,305,40*5A
$GNGLL,5212.88056,N,02110.58472,E,232905.60,A,A*77
$GNRMC,232905.80,A,5212.88049,N,02110.58504,E,0.077,,011215,,,A*68
$GNVTG,,T,,M,0.077,N,0.143,K,A*3B
$GNGGA,232905.80,5212.88049,N,02110.58504,E,1,06,3.65,108.1,M,34.1,M,,*4A
$GNGSA,A,3,14,24,12,25,,,,,,,,,5.90,3.65,4.64*11
$GNGSA,A,3,79,69,,,,,,,,,,,5.90,3.65,4.64*17
$GPGSV,1,1,04,12,71,276,31,14,30,307,27,24,72,170,27,25,30,266,37*7C
$GLGSV,2,1,05,68,07,254,,69,20,302,33,77,47,105,20,78,68,331,*60
$GLGSV,2,2,05,79,24,305,40*5A
$GNGLL,5212.88049,N,02110.58504,E,232905.80,A,A*77
$GNRMC,232906.00,A,5212.88040,N,02110.58543,E,0.103,,011215,,,A*6B
$GNVTG,,T,,M,0.103,N,0.191,K,A*36
$GNGGA,232906.00,5212.88040,N,02110.58543,E,1,06,3.65,107.5,M,34.1,M,,*40
$GNGSA,A,3,14,24,12,25,,,,,,,,,5.90,3.65,4.64*11
$GNGSA,A,3,79,69,,,,,,,,,,,5.90,3.65,4.64*17
$GPGSV,1,1,04,12,71,276,31,14,30,307,27,24,72,170,27,25,30,266,38*73
$GLGSV,2,1,05,68,07,254,,69,20,302,33,77,47,105,20,78,68,331,*60
$GLGSV,2,2,05,79,24,305,40*5A
$GNGLL,5212.88040,N,02110.58543,E,232906.00,A,A*76
$GNRMC,232906.20,A,5212.88034,N,02110.58568,E,0.222,,011215,,,A*63
$GNVTG,,T,,M,0.222,N,0.410,K,A*3A
$GNGGA,232906.20,5212.88034,N,02110.58568,E,1,06,3.65,107.1,M,34.1,M,,*4C
$GNGSA,A,3,14,24,12,25,,,,,,,,,5.90,3.65,4.64*11
$GNGSA,A,3,79,69,,,,,,,,,,,5.90,3.65,4.64*17
$GPGSV,1,1,04,12,71,276,31,14,30,307,27,24,72,170,27,25,30,266,37*7C
$GLGSV,2,1,05,68,07,254,,69,20,302,33,77,47,105,20,78,68,331,*60
$GLGSV,2,2,05,79,24,305,40*5A
$GNGLL,5212.88034,N,02110.58568,E,232906.20,A,A*7E
$GNRMC,232906.40,A,5212.88026,N,02110.58602,E,0.409,,011215,,,A*66
$GNVTG,,T,,M,0.409,N,0.757,K,A*35
$GNGGA,232906.40,5212.88026,N,02110.58602,E,1,06,3.65,106.6,M,34.1,M,,*40
$GNGSA,A,3,14,24,12,25,,,,,,,,,5.90,3.65,4.64*11
$GNGSA,A,3,79,69,,,,,,,,,,,5.90,3.65,4.64*17
$GPGSV,1,1,04,12,71,276,31,14,30,307,27,24,72,170,27,25,30,266,37*7C
$GLGSV,2,1,05,68,07,254,,69,20,302,33,77,47,105,20,78,68,331,*60
$GLGSV,2,2,05,79,24,305,40*5A
$GNGLL,5212.88026,N,02110.58602,E,232906.40,A,A*74
$GNRMC,232906.60,A,5212.88019,N,02110.58630,E,0.429,,011215,,,A*6B
$GNVTG,,T,,M,0.429,N,0.795,K,A*39
$GNGGA,232906.60,5212.88019,N,02110.58630,E,1,06,3.65,106.1,M,34.1,M,,*48
$GNGSA,A,3,14,24,12,25,,,,,,,,,5.90,3.65,4.64*11
$GNGSA,A,3,79,69,,,,,,,,,,,5.90,3.65,4.64*17
$GPGSV,1,1,04,12,71,276,31,14,30,307,27,24,72,170,27,25,30,266,38*73
$GLGSV,2,1,05,68,07,254,,69,20,302,33,77,47,105,20,78,68,331,*60
$GLGSV,2,2,05,79,24,305,40*5A
$GNGLL,5212.88019,N,02110.58630,E,232906.60,A,A*7B
$GNRMC,232906.80,A,5212.88011,N,02110.58666,E,0.451,,011215,,,A*61
$GNVTG,,T,,M,0.451,N,0.835,K,A*33
$GNGGA,232906.80,5212.88011,N,02110.58666,E,1,06,3.65,105.6,M,34.1,M,,*49
$GNGSA,A,3,14,24,12,25,,,,,,,,,5.90,3.65,4.64*11
$GNGSA,A,3,79,69,,,,,,,,,,,5.90,3.65,4.64*17
$GPGSV,1,1,04,12,71,276,31,14,30,307,27,24,72,170,26,25,30,266,38*72
$GLGSV,2,1,05,68,07,254,,69,20,302,33,77,47,105,20,78,68,331,*60
$GLGSV,2,2,05,79,24,305,40*5A
$GNGLL,5212.88011,N,02110.58666,E,232906.80,A,A*7E
$GNRMC,232907.00,A,5212.88006,N,02110.58685,E,0.214,,011215,,,A*64
$GNVTG,,T,,M,0.214,N,0.397,K,A*37
$GNGGA,232907.00,5212.88006,N,02110.58685,E,1,06,3.65,105.2,M,34.1,M,,*4F
$GNGSA,A,3,14,24,12,25,,,,,,,,,5.90,3.65,4.64*11
$GNGSA,A,3,79,69,,,,,,,,,,,5.90,3.65,4.64*17
$GPGSV,1,1,04,12,71,276,31,14,30,307,27,24,72,170,26,25,30,266,37*7D
$GLGSV,2,1,05,68,07,254,,69,20,302,33,77,47,105,20,78,68,331,*60
$GLGSV,2,2,05,79,24,305,40*5A
$GNGLL,5212.88006,N,02110.58685,E,232907.00,A,A*7C
$GNRMC,232907.20,A,5212.87998,N,02110.58719,E,0.219,,011215,,,A*6E
$GNVTG,,T,,M,0.219,N,0.405,K,A*36
$GNGGA,232907.20,5212.87998,N,02110.58719,E,1,06,3.65,104.7,M,34.1,M,,*4C
$GNGSA,A,3,14,24,12,25,,,,,,,,,5.90,3.65,4.64*11
$GNGSA,A,3,79,69,,,,,,,,,,,5.90,3.65,4.64*17
$GPGSV,1,1,04,12,71,276,31,14,30,307,27,24,72,170,26,25,30,266,38*72
$GLGSV,2,1,05,68,07,254,,69,20,302,33,77,47,105,20,78,68,331,*60
$GLGSV,2,2,05,79,24,305,40*5A
$GNGLL,5212.87998,N,02110.58719,E,232907.20,A,A*7B
$GNRMC,232907.40,A,5212.87992,N,02110.58747,E,0.173,,011215,,,A*66
$GNVTG,,T,,M,0.173,N,0.321,K,A*38
$GNGGA,232907.40,5212.87992,N,02110.58747,E,1,06,3.65,104.3,M,34.1,M,,*4F
$GNGSA,A,3,14,24,12,25,,,,,,,,,5.90,3.65,4.64*11
$GNGSA,A,3,79,69,,,,,,,,,,,5.90,3.65,4.64*17
$GPGSV,1,1,04,12,71,276,31,14,30,307,27,24,72,170,26,25,30,266,37*7D
$GLGSV,2,1,05,68,07,254,,69,20,302,33,77,47,105,20,78,68,331,*60
$GLGSV,2,2,05,79,24,305,40*5A
$GNGLL,5212.87992,N,02110.58747,E,232907.40,A,A*7C
$GNRMC,232907.60,A,5212.87984,N,02110.58777,E,0.199,,011215,,,A*64
$GNVTG,,T,,M,0.199,N,0.368,K,A*31
$GNGGA,232907.60,5212.87984,N,02110.58777,E,1,06,3.65,103.8,M,34.1,M,,*45
$GNGSA,A,3,14,24,12,25,,,,,,,,,5.90,3.65,4.64*11
$GNGSA,A,3,79,69,,,,,,,,,,,5.90,3.65,4.64*17
$GPGSV,1,1,04,12,71,276,31,14,30,307,27,24,72,170,26,25,30,266,37*7D
$GLGSV,2,1,05,68,07,254,,69,20,302,33,77,47,105,20,78,68,331,*60
$GLGSV,2,2,05,79,24,305,39*54
$GNGLL,5212.87984,N,02110.58777,E,232907.60,A,A*7A
$GNRMC,232907.80,A,5212.87978,N,02110.58806,E,0.304,,011215,,,A*66
$GNVTG,,T,,M,0.304,N,0.562,K,A*3B
$GNGGA,232907.80,5212.87978,N,02110.58806,E,1,06,3.65,103.4,M,34.1,M,,*4D
$GNGSA,A,3,14,24,12,25,,,,,,,,,5.90,3.65,4.64*11
$GNGSA,A,3,79,69,,,,,,,,,,,5.90,3.65,4.64*17
$GPGSV,1,1,04,12,71,276,31,14,30,307,27,24,72,170,26,25,30,266,37*7D
$GLGSV,2,1,05,68,07,254,,69,20,302,33,77,47,105,20,78,68,331,*60
$GLGSV,2,2,05,79,24,305,39*54
$GNGLL,5212.87978,N,02110.58806,E,232907.80,A,A*7E
$GNRMC,232908.00,A,5212.87972,N,02110.58834,E,0.371,,011215,,,A*68
$GNVTG,,T,,M,0.371,N,0.687,K,A*31
$GNGGA,232908.00,5212.87972,N,02110.58834,E,1,06,3.65,102.9,M,34.1,M,,*4D
$GNGSA,A,3,14,24,12,25,,,,,,,,,5.90,3.65,4.64*11
$GNGSA,A,3,79,69,,,,,,,,,,,5.90,3.65,4.64*17
$GPGSV,1,1,04,12,71,276,31,14,30,307,27,24,72,170,26,25,30,266,37*7D
$GLGSV,2,1,05,68,07,254,,69,20,302,33,77,47,105,20,78,68,331,*60
$GLGSV,2,2,05,79,24,305,39*54
$GNGLL,5212.87972,N,02110.58834,E,232908.00,A,A*72
$GNRMC,232908.20,A,5212.87966,N,02110.58862,E,0.476,,011215,,,A*6C
$GNVTG,,T,,M,0.476,N,0.881,K,A*39
$GNGGA,232908.20,5212.87966,N,02110.58862,E,1,06,3.65,102.5,M,34.1,M,,*45
$GNGSA,A,3,14,24,12,25,,,,,,,,,5.90,3.65,4.64*11
$GNGSA,A,3,79,69,,,,,,,,,,,5.90,3.65,4.64*17
$GPGSV,1,1,04,12,71,276,31,14,30,307,27,24,72,170,26,25,30,266,37*7D
$GLGSV,2,1,05,68,07,254,,69,20,302,33,77,47,105,20,78,68,331,*60
$GLGSV,2,2,05,79,24,305,39*54
$GNGLL,5212.87966,N,02110.58862,E,232908.20,A,A*76
$GNRMC,232908.40,A,5212.87959,N,02110.58890,E,0.374,,011215,,,A*6E
$GNVTG,,T,,M,0.374,N,0.692,K,A*30
$GNGGA,232908.40,5212.87959,N,02110.58890,E,1,06,3.65,102.1,M,34.1,M,,*46
$GNGSA,A,3,14,24,12,25,,,,,,,,,5.90,3.65,4.64*11
$GNGSA,A,3,79,69,,,,,,,,,,,5.90,3.65,4.64*17
$GPGSV,1,1,04,12,71,276,31,14,30,307,27,24,72,170,26,25,30,266,38*72
$GLGSV,2,1,05,68,07,254,,69,20,302,33,77,47,105,20,78,68,331,*60
$GLGSV,2,2,05,79,24,305,39*54
$GNGLL,5212.87959,N,02110.58890,E,232908.40,A,A*71
$GNRMC,232908.60,A,5212.87953,N,02110.58918,E,0.351,,011215,,,A*60
$GNVTG,,T,,M,0.351,N,0.650,K,A*39
$GNGGA,232908.60,5212.87953,N,02110.58918,E,1,06,3.65,101.7,M,34.1,M,,*4A
$GNGSA,A,3,14,24,12,25,,,,,,,,,5.90,3.65,4.64*11
$GNGSA,A,3,79,69,,,,,,,,,,,5.90,3.65,4.64*17
$GPGSV,1,1,04,12,71,276,31,14,30,307,27,24,72,170,25,25,30,266,38*71
$GLGSV,2,1,05,68,07,254,,69,20,302,33,77,47,105,20,78,68,331,*60
$GLGSV,2,2,05,79,24,305,39*54
$GNGLL,5212.87953,N,02110.58918,E,232908.60,A,A*78
$GNRMC,232908.80,A,5212.87948,N,02110.58937,E,0.209,,011215,,,A*65
$GNVTG,,T,,M,0.209,N,0.386,K,A*3B
$GNGGA,232908.80,5212.87948,N,02110.58937,E,1,06,3.65,101.4,M,34.1,M,,*40
$GNGSA,A,3,14,24,12,25,,,,,,,,,5.90,3.65,4.64*11
$GNGSA,A,3,79,69,,,,,,,,,,,5.90,3.65,4.64*17
$GPGSV,1,1,04,12,71,276,31,14,30,307,27,24,72,170,25,25,30,266,38*71
$GLGSV,2,1,05,68,07,254,,69,20,302,32,77,47,105,20,78,68,331,*61
$GLGSV,2,2,05,79,24,305,39*54
$GNGLL,5212.87948,N,02110.58937,E,232908.80,A,A*71
$GNRMC,232909.00,A,5212.87943,N,02110.58959,E,0.198,,011215,,,A*64
$GNVTG,,T,,M,0.198,N,0.367,K,A*3F
$GNGGA,232909.00,5212.87943,N,02110.58959,E,1,06,3.65,101.1,M,34.1,M,,*4F
$GNGSA,A,3,14,24,12,25,,,,,,,,,5.90,3.65,4.64*11
$GNGSA,A,3,79,69,,,,,,,,,,,5.90,3.65,4.64*17
$GPGSV,1,1,04,12,71,276,31,14,30,307,27,24,72,170,25,25,30,266,38*71
$GLGSV,2,1,05,68,07,254,,69,20,302,32,77,47,105,20,78,68,331,*61
$GLGSV,2,2,05,79,24,305,39*54
$GNGLL,5212.87943,N,02110.58959,E,232909.00,A,A*7B
$GNRMC,232909.20,A,5212.87937,N,02110.58986,E,0.209,,011215,,,A*6C
$GNVTG,,T,,M,0.209,N,0.387,K,A*3A
$GNGGA,232909.20,5212.87937,N,02110.58986,E,1,06,3.65,100.7,M,34.1,M,,*4B
$GNGSA,A,3,14,24,12,25,,,,,,,,,5.90,3.65,4.64*11
$GNGSA,A,3,79,69,,,,,,,,,,,5.90,3.65,4.64*17
$GPGSV,1,1,04,12,71,276,31,14,30,307,27,24,72,170,25,25,30,266,38*71
$GLGSV,2,1,05,68,07,254,,69,20,302,32,77,47,105,20,78,68,331,*61
$GLGSV,2,2,05,79,24,305,39*54
$GNGLL,5212.87937,N,02110.58986,E,232909.20,A,A*78
$GNRMC,232909.40,A,5212.87931,N,02110.59016,E,0.413,,011215,,,A*60
$GNVTG,,T,,M,0.413,N,0.765,K,A*3F
$GNGGA,232909.40,5212.87931,N,02110.59016,E,1,06,3.65,100.3,M,34.1,M,,*4E
$GNGSA,A,3,14,24,12,25,,,,,,,,,5.90,3.65,4.64*11
$GNGSA,A,3,79,69,,,,,,,,,,,5.90,3.65,4.64*17
$GPGSV,1,1,04,12,71,276,31,14,30,307,27,24,72,170,25,25,30,266,38*71
$GLGSV,2,1,05,68,07,254,,69,20,302,33,77,47,105,20,78,68,331,*60
$GLGSV,2,2,05,79,24,305,39*54
$GNGLL,5212.87931,N,02110.59016,E,232909.40,A,A*79
$GNRMC,232909.60,A,5212.87923,N,02110.59052,E,0.572,,011215,,,A*67
$GNVTG,,T,,M,0.572,N,1.059,K,A*30
$GNGGA,232909.60,5212.87923,N,02110.59052,E,1,06,3.65,99.8,M,34.1,M,,*75
$GNGSA,A,3,14,24,12,25,,,,,,,,,5.90,3.65,4.64*11
$GNGSA,A,3,79,69,,,,,,,,,,,5.90,3.65,4.64*17
$GPGSV,1,1,04,12,71,276,30,14,30,307,26,24,72,170,26,25,30,266,38*72
$GLGSV,2,1,05,68,07,254,,69,20,302,32,77,47,105,20,78,68,331,*61
$GLGSV,2,2,05,79,24,305,39*54
$GNGLL,5212.87923,N,02110.59052,E,232909.60,A,A*78
$GNRMC,232909.80,A,5212.87916,N,02110.59084,E,0.734,,011215,,,A*64
$GNVTG,,T,,M,0.734,N,1.360,K,A*39
$GNGGA,232909.80,5212.87916,N,02110.59084,E,1,06,3.64,99.4,M,34.1,M,,*7B
$GNGSA,A,3,14,24,12,25,,,,,,,,,5.90,3.64,4.64*10
$GNGSA,A,3,79,69,,,,,,,,,,,5.90,3.64,4.64*16
$GPGSV,1,1,04,12,71,276,30,14,30,307,26,24,72,170,25,25,30,266,38*71
$GLGSV,2,1,05,68,07,254,,69,20,302,32,77,47,105,20,78,68,331,*61
$GLGSV,2,2,05,79,24,305,39*54
$GNGLL,5212.87916,N,02110.59084,E,232909.80,A,A*7B
$GNRMC,232910.00,A,5212.87911,N,02110.59110,E,0.833,,011215,,,A*67
$GNVTG,,T,,M,0.833,N,1.542,K,A*37
$GNGGA,232910.00,5212.87911,N,02110.59110,E,1,06,3.64,99.0,M,34.1,M,,*74
$GNGSA,A,3,14,24,12,25,,,,,,,,,5.90,3.64,4.64*10
$GNGSA,A,3,79,69,,,,,,,,,,,5.90,3.64,4.64*16
$GPGSV,1,1,04,12,71,276,30,14,30,307,26,24,72,170,25,25,30,266,38*71
$GLGSV,2,1,05,68,07,254,,69,20,302,33,77,47,105,20,78,68,331,*60
$GLGSV,2,2,05,79,24,305,39*54
$GNGLL,5212.87911,N,02110.59110,E,232910.00,A,A*70
$GNRMC,232910.20,A,5212.87905,N,02110.59143,E,0.982,,011215,,,A*6D
$GNVTG,,T,,M,0.982,N,1.819,K,A*3F
$GNGGA,232910.20,5212.87905,N,02110.59143,E,1,06,3.64,98.6,M,34.1,M,,*72
$GNGSA,A,3,14,24,12,25,,,,,,,,,5.90,3.64,4.64*10
$GNGSA,A,3,79,69,,,,,,,,,,,5.90,3.64,4.64*16
$GPGSV,1,1,04,12,71,276,30,14,30,307,26,24,72,170,25,25,30,266,38*71
$GLGSV,2,1,05,68,07,254,,69,20,302,33,77,47,105,20,78,68,331,*60
$GLGSV,2,2,05,79,24,305,39*54
$GNGLL,5212.87905,N,02110.59143,E,232910.20,A,A*71
$GNRMC,232910.40,A,5212.87897,N,02110.59176,E,1.197,182.55,011215,,,A*7F
$GNVTG,182.55,T,,M,1.197,N,2.216,K,A*21
$GNGGA,232910.40,5212.87897,N,02110.59176,E,1,06,3.64,98.2,M,34.1,M,,*7C
$GNGSA,A,3,14,24,12,25,,,,,,,,,5.90,3.64,4.64*10
$GNGSA,A,3,79,69,,,,,,,,,,,5.90,3.64,4.64*16
$GPGSV,1,1,04,12,71,276,30,14,30,307,27,24,72,170,25,25,30,266,38*70
$GLGSV,2,1,05,68,07,254,,69,20,302,33,77,47,105,20,78,68,331,*60
$GLGSV,2,2,05,79,24,305,39*54
$GNGLL,5212.87897,N,02110.59176,E,232910.40,A,A*7B
$GNRMC,232910.60,A,5212.87890,N,02110.59208,E,1.286,140.96,011215,,,A*72
$GNVTG,140.96,T,,M,1.286,N,2.381,K,A*2C
$GNGGA,232910.60,5212.87890,N,02110.59208,E,1,06,3.64,97.7,M,34.1,M,,*79
$GNGSA,A,3,14,24,12,25,,,,,,,,,5.90,3.64,4.64*10
$GNGSA,A,3,79,69,,,,,,,,,,,5.90,3.64,4.64*16
$GPGSV,1,1,04,12,71,276,30,14,30,307,26,24,72,170,25,25,30,266,38*71
$GLGSV,2,1,05,68,07,254,,69,20,302,33,77,47,105,20,78,68,331,*60
$GLGSV,2,2,05,79,24,305,39*54
$GNGLL,5212.87890,N,02110.59208,E,232910.60,A,A*74
$GNRMC,232910.80,A,5212.87884,N,02110.59242,E,1.395,120.01,011215,,,A*7C
$GNVTG,120.01,T,,M,1.395,N,2.584,K,A*24
$GNGGA,232910.80,5212.87884,N,02110.59242,E,1,06,3.64,97.3,M,34.1,M,,*78
$GNGSA,A,3,14,24,12,25,,,,,,,,,5.90,3.64,4.64*10
$GNGSA,A,3,79,69,,,,,,,,,,,5.90,3.64,4.64*16
$GPGSV,1,1,04,12,71,276,30,14,30,307,27,24,72,170,25,25,30,266,38*70
$GLGSV,2,1,05,68,07,254,,69,20,302,33,77,47,105,20,78,68,331,*60
$GLGSV,2,2,05,79,24,305,39*54
$GNGLL,5212.87884,N,02110.59242,E,232910.80,A,A*71
$GNRMC,232911.00,A,5212.87878,N,02110.59274,E,1.398,111.31,011215,,,A*7F
$GNVTG,111.31,T,,M,1.398,N,2.590,K,A*2D
$GNGGA,232911.00,5212.87878,N,02110.59274,E,1,06,3.64,96.9,M,34.1,M,,*7C
$GNGSA,A,3,14,24,12,25,,,,,,,,,5.90,3.64,4.64*10
$GNGSA,A,3,79,69,,,,,,,,,,,5.90,3.64,4.64*16
$GPGSV,1,1,04,12,71,276,30,14,30,307,27,24,72,170,25,25,30,266,38*70
$GLGSV,2,1,05,68,07,254,,69,20,302,33,77,47,105,20,78,68,331,*60
$GLGSV,2,2,05,79,24,305,39*54
$GNGLL,5212.87878,N,02110.59274,E,232911.00,A,A*7E
$GNRMC,232911.20,A,5212.87873,N,02110.59301,E,1.373,107.34,011215,,,A*72
$GNVTG,107.34,T,,M,1.373,N,2.542,K,A*25
$GNGGA,232911.20,5212.87873,N,02110.59301,E,1,06,3.64,96.6,M,34.1,M,,*79
$GNGSA,A,3,14,24,12,25,,,,,,,,,5.90,3.64,4.64*10
$GNGSA,A,3,79,69,,,,,,,,,,,5.90,3.64,4.64*16
$GPGSV,1,1,04,12,71,276,30,14,30,307,27,24,72,170,25,25,30,266,38*70
$GLGSV,2,1,05,68,07,254,,69,20,302,32,77,47,105,20,78,68,331,*61
$GLGSV,2,2,05,79,24,305,40*5A
$GNGLL,5212.87873,N,02110.59301,E,232911.20,A,A*74
$GNRMC,232911.40,A,5212.87868,N,02110.59328,E,1.445,105.37,011215,,,A*76
$GNVTG,105.37,T,,M,1.445,N,2.677,K,A*23
$GNGGA,232911.40,5212.87868,N,02110.59328,E,1,06,3.64,96.2,M,34.1,M,,*7A
$GNGSA,A,3,14,24,12,25,,,,,,,,,5.90,3.64,4.64*10
$GNGSA,A,3,79,69,,,,,,,,,,,5.90,3.64,4.64*16
$GPGSV,1,1,04,12,71,276,30,14,30,307,27,24,72,170,25,25,30,266,38*70
$GLGSV,2,1,05,68,07,254,,69,20,302,32,77,47,105,20,78,68,331,*61
$GLGSV,2,2,05,79,24,305,40*5A
$GNGLL,5212.87868,N,02110.59328,E,232911.40,A,A*73
$GNRMC,232911.60,A,5212.87863,N,02110.59356,E,1.442,105.23,011215,,,A*74
$GNVTG,105.23,T,,M,1.442,N,2.670,K,A*26
$GNGGA,232911.60,5212.87863,N,02110.59356,E,1,06,3.64,95.9,M,34.1,M,,*72
$GNGSA,A,3,14,24,12,25,,,,,,,,,5.90,3.64,4.64*10
$GNGSA,A,3,79,69,,,,,,,,,,,5.90,3.64,4.64*16
$GPGSV,1,1,04,12,71,276,30,14,30,307,27,24,72,170,25,25,30,266,38*70
$GLGSV,2,1,05,68,07,254,,69,20,302,32,77,47,105,20,78,68,331,*61
$GLGSV,2,2,05,79,24,305,40*5A
$GNGLL,5212.87863,N,02110.59356,E,232911.60,A,A*73
$GNRMC,232911.80,A,5212.87859,N,02110.59381,E,1.368,103.64,011215,,,A*73
$GNVTG,103.64,T,,M,1.368,N,2.534,K,A*2F
$GNGGA,232911.80,5212.87859,N,02110.59381,E,1,06,3.64,95.6,M,34.1,M,,*70
$GNGSA,A,3,14,24,12,25,,,,,,,,,5.90,3.64,4.64*10
$GNGSA,A,3,79,69,,,,,,,,,,,5.90,3.64,4.64*16
$GPGSV,1,1,04,12,71,276,30,14,30,307,27,24,72,170,25,25,30,266,38*70
$GLGSV,2,1,05,68,07,254,,69,20,302,32,77,47,105,20,78,68,331,*61
$GLGSV,2,2,05,79,24,305,40*5A
$GNGLL,5212.87859,N,02110.59381,E,232911.80,A,A*7E
$GNRMC,232912.00,A,5212.87854,N,02110.59407,E,1.337,104.67,011215,,,A*72
$GNVTG,104.67,T,,M,1.337,N,2.477,K,A*27
$GNGGA,232912.00,5212.87854,N,02110.59407,E,1,06,3.64,95.3,M,34.1,M,,*7A
$GNGSA,A,3,14,24,12,25,,,,,,,,,5.90,3.64,4.64*10
$GNGSA,A,3,79,69,,,,,,,,,,,5.90,3.64,4.64*16
$GPGSV,1,1,04,12,71,276,29,14,30,307,27,24,72,170,25,25,30,266,38*78
$GLGSV,2,1,05,68,07,254,,69,20,302,33,77,47,105,20,78,68,331,*60
$GLGSV,2,2,05,79,24,305,40*5A
$GNGLL,5212.87854,N,02110.59407,E,232912.00,A,A*71
$GNRMC,232912.20,A,5212.87851,N,02110.59431,E,1.186,103.53,011215,,,A*78
$GNVTG,103.53,T,,M,1.186,N,2.197,K,A*24
$GNGGA,232912.20,5212.87851,N,02110.59431,E,1,06,3.64,95.0,M,34.1,M,,*7B
$GNGSA,A,3,14,24,12,25,,,,,,,,,5.90,3.64,4.64*10
$GNGSA,A,3,79,69,,,,,,,,,,,5.90,3.64,4.64*16
$GPGSV,1,1,04,12,71,276,29,14,30,307,27,24,72,170,25,25,30,266,38*78
$GLGSV,2,1,05,68,07,254,,69,20,302,32,77,47,105,20,78,68,331,*61
$GLGSV,2,2,05,79,24,305,40*5A
$GNGLL,5212.87851,N,02110.59431,E,232912.20,A,A*73
$GNRMC,232912.40,A,5212.87845,N,02110.59456,E,0.882,,011215,,,A*6C
$GNVTG,,T,,M,0.882,N,1.633,K,A*38
$GNGGA,232912.40,5212.87845,N,02110.59456,E,1,06,3.64,94.7,M,34.1,M,,*7F
$GNGSA,A,3,14,24,12,25,,,,,,,,,5.90,3.64,4.64*10
$GNGSA,A,3,79,69,,,,,,,,,,,5.90,3.64,4.64*16
$GPGSV,1,1,04,12,71,276,29,14,30,307,27,24,72,170,25,25,30,266,38*78
$GLGSV,2,1,05,68,07,254,,69,20,302,32,77,47,105,20,78,68,331,*61
$GLGSV,2,2,05,79,24,305,40*5A
$GNGLL,5212.87845,N,02110.59456,E,232912.40,A,A*71
$GNRMC,232912.60,A,5212.87843,N,02110.59480,E,0.649,,011215,,,A*6A
$GNVTG,,T,,M,0.649,N,1.203,K,A*36
$GNGGA,232912.60,5212.87843,N,02110.59480,E,1,06,3.64,94.5,M,34.1,M,,*72
$GNGSA,A,3,14,24,12,25,,,,,,,,,5.90,3.64,4.64*10
$GNGSA,A,3,79,69,,,,,,,,,,,5.90,3.64,4.64*16
$GPGSV,1,1,04,12,71,276,29,14,30,307,27,24,72,170,26,25,30,266,38*7B
$GLGSV,2,1,05,68,07,254,,69,20,302,32,77,47,105,20,78,68,331,*61
$GLGSV,2,2,05,79,24,305,39*54
$GNGLL,5212.87843,N,02110.59480,E,232912.60,A,A*7E
$GNRMC,232912.80,A,5212.87840,N,02110.59498,E,0.436,,011215,,,A*64
$GNVTG,,T,,M,0.436,N,0.808,K,A*3C
$GNGGA,232912.80,5212.87840,N,02110.59498,E,1,06,3.64,94.3,M,34.1,M,,*70
$GNGSA,A,3,14,24,12,25,,,,,,,,,5.90,3.64,4.64*10
$GNGSA,A,3,79,69,,,,,,,,,,,5.90,3.64,4.64*16
$GPGSV,1,1,04,12,71,276,29,14,30,307,27,24,72,170,25,25,30,266,38*78
$GLGSV,2,1,05,68,07,254,,69,20,302,32,77,47,105,20,78,68,331,*61
$GLGSV,2,2,05,79,24,305,39*54
$GNGLL,5212.87840,N,02110.59498,E,232912.80,A,A*7A
$GNRMC,232913.00,A,5212.87837,N,02110.59519,E,0.319,,011215,,,A*6F
$GNVTG,,T,,M,0.319,N,0.590,K,A*3A
$GNGGA,232913.00,5212.87837,N,02110.59519,E,1,06,3.64,94.1,M,34.1,M,,*73
$GNGSA,A,3,14,24,12,25,,,,,,,,,5.90,3.64,4.64*10
$GNGSA,A,3,79,69,,,,,,,,,,,5.90,3.64,4.64*16
$GPGSV,1,1,04,12,71,276,29,14,30,307,27,24,72,170,25,25,30,266,38*78
$GLGSV,2,1,05,68,07,254,21,69,20,302,32,77,47,105,20,78,68,331,*62
$GLGSV,2,2,05,79,24,305,39*54
$GNGLL,5212.87837,N,02110.59519,E,232913.00,A,A*7B
$GNRMC,232913.20,A,5212.87835,N,02110.59541,E,0.400,,011215,,,A*6D
$GNVTG,,T,,M,0.400,N,0.741,K,A*3B
$GNGGA,232913.20,5212.87835,N,02110.59541,E,1,06,3.64,93.9,M,34.1,M,,*71
$GNGSA,A,3,14,24,12,25,,,,,,,,,5.90,3.64,4.64*10
$GNGSA,A,3,79,69,,,,,,,,,,,5.90,3.64,4.64*16
$GPGSV,1,1,04,12,71,276,29,14,30,307,27,24,72,170,25,25,30,266,38*78
$GLGSV,2,1,05,68,07,254,21,69,20,302,32,77,47,105,20,78,68,331,*62
$GLGSV,2,2,05,79,24,305,39*54
$GNGLL,5212.87835,N,02110.59541,E,232913.20,A,A*76
$GNRMC,232913.40,A,5212.87831,N,02110.59561,E,0.486,,011215,,,A*63
$GNVTG,,T,,M,0.486,N,0.900,K,A*3E
$GNGGA,232913.40,5212.87831,N,02110.59561,E,1,06,3.64,93.7,M,34.1,M,,*7F
$GNGSA,A,3,14,24,12,25,,,,,,,,,5.90,3.64,4.64*10
$GNGSA,A,3,79,69,,,,,,,,,,,5.90,3.64,4.64*16
$GPGSV,1,1,04,12,71,276,29,14,30,307,27,24,72,170,25,25,30,266,38*78
$GLGSV,2,1,05,68,07,254,20,69,20,302,32,77,47,105,20,78,68,331,*63
$GLGSV,2,2,05,79,24,305,39*54
$GNGLL,5212.87831,N,02110.59561,E,232913.40,A,A*76
$GNRMC,232913.60,A,5212.87828,N,02110.59583,E,0.662,,011215,,,A*6D
$GNVTG,,T,,M,0.662,N,1.227,K,A*39
$GNGGA,232913.60,5212.87828,N,02110.59583,E,1,06,3.64,93.5,M,34.1,M,,*7B
$GNGSA,A,3,14,24,12,25,,,,,,,,,5.90,3.64,4.64*10
$GNGSA,A,3,79,69,,,,,,,,,,,5.90,3.64,4.64*16
$GPGSV,1,1,04,12,71,276,29,14,30,307,27,24,72,170,25,25,30,266,38*78
$GLGSV,2,1,05,68,07,254,20,69,20,302,32,77,47,105,20,78,68,331,*63
$GLGSV,2,2,05,79,24,305,39*54
$GNGLL,5212.87828,N,02110.59583,E,232913.60,A,A*70
$GNRMC,232913.80,A,5212.87826,N,02110.59602,E,0.739,,011215,,,A*68
$GNVTG,,T,,M,0.739,N,1.369,K,A*3D
$GNGGA,232913.80,5212.87826,N,02110.59602,E,1,06,3.64,93.3,M,34.1,M,,*77
$GNGSA,A,3,14,24,12,25,,,,,,,,,5.90,3.64,4.64*10
$GNGSA,A,3,79,69,,,,,,,,,,,5.90,3.64,4.64*16
$GPGSV,1,1,04,12,71,276,29,14,30,307,27,24,72,170,25,25,30,266,38*78
$GLGSV,2,1,05,68,07,254,19,69,20,302,32,77,47,105,20,78,68,331,*69
$GLGSV,2,2,05,79,24,305,39*54
$GNGLL,5212.87826,N,02110.59602,E,232913.80,A,A*7A
$GNRMC,232914.00,A,5212.87823,N,02110.59622,E,0.800,,011215,,,A*65
$GNVTG,,T,,M,0.800,N,1.481,K,A*39
$GNGGA,232914.00,5212.87823,N,02110.59622,E,1,06,3.64,93.1,M,34.1,M,,*7D
$GNGSA,A,3,14,24,12,25,,,,,,,,,5.90,3.64,4.64*10
$GNGSA,A,3,79,69,,,,,,,,,,,5.90,3.64,4.64*16
$GPGSV,1,1,04,12,71,276,29,14,30,307,26,24,72,170,25,25,30,266,38*79
$GLGSV,2,1,05,68,07,254,,69,20,302,32,77,47,105,20,78,68,331,*61
$GLGSV,2,2,05,79,24,305,39*54
$GNGLL,5212.87823,N,02110.59622,E,232914.00,A,A*72
$GNRMC,232914.20,A,5212.87820,N,02110.59643,E,0.873,,011215,,,A*67
$GNVTG,,T,,M,0.873,N,1.616,K,A*31
$GNGGA,232914.20,5212.87820,N,02110.59643,E,1,06,3.64,92.8,M,34.1,M,,*73
$GNGSA,A,3,14,24,12,25,,,,,,,,,5.90,3.64,4.64*10
$GNGSA,A,3,79,69,,,,,,,,,,,5.90,3.64,4.64*16
$GPGSV,1,1,04,12,71,276,29,14,30,307,26,24,72,170,25,25,30,266,38*79
$GLGSV,2,1,05,68,07,254,,69,20,302,32,77,47,105,20,78,68,331,*61
$GLGSV,2,2,05,79,24,305,39*54
$GNGLL,5212.87820,N,02110.59643,E,232914.20,A,A*74
$GNRMC,232914.40,A,5212.87817,N,02110.59663,E,0.862,,011215,,,A*67
$GNVTG,,T,,M,0.862,N,1.596,K,A*3A
$GNGGA,232914.40,5212.87817,N,02110.59663,E,1,06,3.64,92.6,M,34.1,M,,*7D
$GNGSA,A,3,14,24,12,25,,,,,,,,,5.90,3.64,4.64*10
$GNGSA,A,3,79,69,,,,,,,,,,,5.90,3.64,4.64*16
$GPGSV,1,1,04,12,71,276,29,14,30,307,26,24,72,170,25,25,30,266,38*79
$GLGSV,2,1,05,68,07,254,,69,20,302,32,77,47,105,19,78,68,331,*6B
$GLGSV,2,2,05,79,24,305,39*54
$GNGLL,5212.87817,N,02110.59663,E,232914.40,A,A*74
$GNRMC,232914.60,A,5212.87814,N,02110.59684,E,0.919,,011215,,,A*62
$GNVTG,,T,,M,0.919,N,1.702,K,A*38
$GNGGA,232914.60,5212.87814,N,02110.59684,E,1,06,3.64,92.3,M,34.1,M,,*70
$GNGSA,A,3,14,24,12,25,,,,,,,,,5.90,3.64,4.64*10
$GNGSA,A,3,79,69,,,,,,,,,,,5.90,3.64,4.64*16
$GPGSV,1,1,04,12,71,276,29,14,30,307,26,24,72,170,26,25,30,266,38*7A
$GLGSV,2,1,05,68,07,254,,69,20,302,32,77,47,105,19,78,68,331,*6B
$GLGSV,2,2,05,79,24,305,39*54
$GNGLL,5212.87814,N,02110.59684,E,232914.60,A,A*7C
$GNRMC,232914.80,A,5212.87810,N,02110.59706,E,1.060,,011215,,,A*65
$GNVTG,,T,,M,1.060,N,1.964,K,A*30
$GNGGA,232914.80,5212.87810,N,02110.59706,E,1,06,3.64,92.1,M,34.1,M,,*73
$GNGSA,A,3,14,24,12,25,,,,,,,,,5.90,3.64,4.64*10
$GNGSA,A,3,79,69,,,,,,,,,,,5.90,3.64,4.64*16
$GPGSV,1,1,04,12,71,276,29,14,30,307,26,24,72,170,26,25,30,266,38*7A
$GLGSV,2,1,05,68,07,254,,69,20,302,32,77,47,105,19,78,68,331,*6B
$GLGSV,2,2,05,79,24,305,39*54
$GNGLL,5212.87810,N,02110.59706,E,232914.80,A,A*7D
$GNRMC,232915.00,A,5212.87807,N,02110.59729,E,1.115,103.36,011215,,,A*7D
$GNVTG,103.36,T,,M,1.115,N,2.065,K,A*21
$GNGGA,232915.00,5212.87807,N,02110.59729,E,1,06,3.64,91.8,M,34.1,M,,*7B
$GNGSA,A,3,14,24,12,25,,,,,,,,,5.89,3.64,4.63*1F
$GNGSA,A,3,79,69,,,,,,,,,,,5.89,3.64,4.63*19
$GPGSV,1,1,04,12,71,276,29,14,30,307,26,24,72,170,26,25,30,266,38*7A
$GLGSV,2,1,05,68,07,254,,69,20,302,32,77,47,105,19,78,68,331,*6B
$GLGSV,2,2,05,79,24,305,39*54
$GNGLL,5212.87807,N,02110.59729,E,232915.00,A,A*7F
$GNRMC,232915.20,A,5212.87804,N,02110.59747,E,1.182,104.80,011215,,,A*70
$GNVTG,104.80,T,,M,1.182,N,2.190,K,A*2E
$GNGGA,232915.20,5212.87804,N,02110.59747,E,1,06,3.64,91.6,M,34.1,M,,*7C
$GNGSA,A,3,14,24,12,25,,,,,,,,,5.89,3.64,4.63*1F
$GNGSA,A,3,79,69,,,,,,,,,,,5.89,3.64,4.63*19
$GPGSV,1,1,04,12,71,276,29,14,30,307,26,24,72,170,26,25,30,266,38*7A
$GLGSV,2,1,05,68,07,254,,69,20,302,32,77,47,105,19,78,68,331,*6B
$GLGSV,2,2,05,79,24,305,39*54
$GNGLL,5212.87804,N,02110.59747,E,232915.20,A,A*76
$GNRMC,232915.40,A,5212.87802,N,02110.59765,E,1.262,105.38,011215,,,A*7F
$GNVTG,105.38,T,,M,1.262,N,2.338,K,A*21
$GNGGA,232915.40,5212.87802,N,02110.59765,E,1,06,3.64,91.4,M,34.1,M,,*7E
$GNGSA,A,3,14,24,12,25,,,,,,,,,5.89,3.64,4.63*1F
$GNGSA,A,3,79,69,,,,,,,,,,,5.89,3.64,4.63*19
$GPGSV,1,1,04,12,71,276,29,14,30,307,26,24,72,170,26,25,30,266,38*7A
$GLGSV,2,1,05,68,07,254,,69,20,302,32,77,47,105,19,78,68,331,*6B
$GLGSV,2,2,05,79,24,305,39*54
$GNGLL,5212.87802,N,02110.59765,E,232915.40,A,A*76
$GNRMC,232915.60,A,5212.87800,N,02110.59783,E,1.254,105.73,011215,,,A*7D
$GNVTG,105.73,T,,M,1.254,N,2.322,K,A*20
$GNGGA,232915.60,5212.87800,N,02110.59783,E,1,06,3.64,91.2,M,34.1,M,,*70
$GNGSA,A,3,14,24,12,25,,,,,,,,,5.89,3.64,4.63*1F
$GNGSA,A,3,79,69,,,,,,,,,,,5.89,3.64,4.63*19
$GPGSV,1,1,04,12,71,276,29,14,30,307,26,24,72,170,26,25,30,266,38*7A
$GLGSV,2,1,05,68,07,254,,69,20,302,32,77,47,105,19,78,68,331,*6B
$GLGSV,2,2,05,79,24,305,39*54
$GNGLL,5212.87800,N,02110.59783,E,232915.60,A,A*7E
$GNRMC,232915.80,A,5212.87798,N,02110.59797,E,1.149,104.87,011215,,,A*7D
$GNVTG,104.87,T,,M,1.149,N,2.128,K,A*2D
$GNGGA,232915.80,5212.87798,N,02110.59797,E,1,06,3.64,91.1,M,34.1,M,,*76
$GNGSA,A,3,14,24,12,25,,,,,,,,,5.89,3.64,4.63*1F
$GNGSA,A,3,79,69,,,,,,,,,,,5.89,3.64,4.63*19
$GPGSV,1,1,04,12,71,276,29,14,30,307,26,24,72,170,26,25,30,266,38*7A
$GLGSV,2,1,05,68,07,254,,69,20,302,32,77,47,105,19,78,68,331,*6B
$GLGSV,2,2,05,79,24,305,39*54
$GNGLL,5212.87798,N,02110.59797,E,232915.80,A,A*7B
$GNRMC,232916.00,A,5212.87797,N,02110.59809,E,0.979,,011215,,,A*6F
$GNVTG,,T,,M,0.979,N,1.813,K,A*31
$GNGGA,232916.00,5212.87797,N,02110.59809,E,1,06,3.64,90.9,M,34.1,M,,*73
$GNGSA,A,3,14,24,12,25,,,,,,,,,5.89,3.64,4.63*1F
$GNGSA,A,3,79,69,,,,,,,,,,,5.89,3.64,4.63*19
$GPGSV,1,1,04,12,71,276,29,14,30,307,27,24,72,170,26,25,30,266,38*7B
$GLGSV,2,1,05,68,07,254,,69,20,302,32,77,47,105,19,78,68,331,*6B
$GLGSV,2,2,05,79,24,305,39*54
$GNGLL,5212.87797,N,02110.59809,E,232916.00,A,A*77
$GNRMC,232916.20,A,5212.87796,N,02110.59820,E,0.921,,011215,,,A*6A
$GNVTG,,T,,M,0.921,N,1.706,K,A*37
$GNGGA,232916.20,5212.87796,N,02110.59820,E,1,06,3.64,90.8,M,34.1,M,,*7A
$GNGSA,A,3,14,24,12,25,,,,,,,,,5.89,3.64,4.63*1F
$GNGSA,A,3,79,69,,,,,,,,,,,5.89,3.64,4.63*19
$GPGSV,1,1,04,12,71,276,29,14,30,307,27,24,72,170,27,25,30,266,38*7A
$GLGSV,2,1,05,68,07,254,,69,20,302,32,77,47,105,18,78,68,331,*6A
$GLGSV,2,2,05,79,24,305,39*54
$GNGLL,5212.87796,N,02110.59820,E,232916.20,A,A*7F
$GNRMC,232916.40,A,5212.87798,N,02110.59822,E,0.776,,011215,,,A*6C
$GNVTG,,T,,M,0.776,N,1.438,K,A*35
$GNGGA,232916.40,5212.87798,N,02110.59822,E,1,06,3.64,90.8,M,34.1,M,,*70
$GNGSA,A,3,14,24,12,25,,,,,,,,,5.89,3.64,4.63*1F
$GNGSA,A,3,79,69,,,,,,,,,,,5.89,3.64,4.63*19
$GPGSV,1,1,04,12,71,276,29,14,30,307,27,24,72,170,27,25,30,266,38*7A
$GLGSV,2,1,05,68,07,254,,69,20,302,32,77,47,105,18,78,68,331,*6A
$GLGSV,2,2,05,79,24,305,39*54
$GNGLL,5212.87798,N,02110.59822,E,232916.40,A,A*75
$GNRMC,232916.60,A,5212.87800,N,02110.59819,E,0.671,,011215,,,A*6E
$GNVTG,,T,,M,0.671,N,1.243,K,A*39
$GNGGA,232916.60,5212.87800,N,02110.59819,E,1,06,3.64,90.8,M,34.1,M,,*74
$GNGSA,A,3,14,24,12,25,,,,,,,,,5.89,3.64,4.63*1F
$GNGSA,A,3,79,69,,,,,,,,,,,5.89,3.64,4.63*19
$GPGSV,1,1,04,12,71,276,29,14,30,307,27,24,72,170,27,25,30,266,38*7A
$GLGSV,2,1,05,68,07,254,,69,20,302,32,77,47,105,18,78,68,331,*6A
$GLGSV,2,2,05,79,24,305,39*54
$GNGLL,5212.87800,N,02110.59819,E,232916.60,A,A*71
$GNRMC,232916.80,A,5212.87801,N,02110.59823,E,0.744,,011215,,,A*6F
$GNVTG,,T,,M,0.744,N,1.378,K,A*37
$GNGGA,232916.80,5212.87801,N,02110.59823,E,1,06,3.64,90.8,M,34.1,M,,*72
$GNGSA,A,3,14,24,12,25,,,,,,,,,5.89,3.64,4.63*1F
$GNGSA,A,3,79,69,,,,,,,,,,,5.89,3.64,4.63*19
$GPGSV,1,1,04,12,71,276,29,14,30,307,27,24,72,170,27,25,30,266,38*7A
$GLGSV,2,1,05,68,07,254,,69,20,302,32,77,47,105,18,78,68,331,*6A
$GLGSV,2,2,05,79,24,305,39*54
$GNGLL,5212.87801,N,02110.59823,E,232916.80,A,A*77
$GNRMC,232917.00,A,5212.87801,N,02110.59823,E,0.671,,011215,,,A*61
$GNVTG,,T,,M,0.671,N,1.242,K,A*38
$GNGGA,232917.00,5212.87801,N,02110.59823,E,1,06,3.64,90.8,M,34.1,M,,*7B
$GNGSA,A,3,14,24,12,25,,,,,,,,,5.89,3.64,4.63*1F
$GNGSA,A,3,79,69,,,,,,,,,,,5.89,3.64,4.63*19
$GPGSV,1,1,04,12,71,276,29,14,30,307,27,24,72,170,27,25,30,266,38*7A
$GLGSV,2,1,05,68,07,254,,69,20,302,31,77,47,105,18,78,68,331,*69
$GLGSV,2,2,05,79,24,305,39*54
$GNGLL,5212.87801,N,02110.59823,E,232917.00,A,A*7E
$GNRMC,232917.20,A,5212.87803,N,02110.59820,E,0.699,,011215,,,A*64
$GNVTG,,T,,M,0.699,N,1.295,K,A*34
$GNGGA,232917.20,5212.87803,N,02110.59820,E,1,06,3.64,90.8,M,34.1,M,,*78
$GNGSA,A,3,14,24,12,25,,,,,,,,,5.89,3.64,4.63*1F
$GNGSA,A,3,79,69,,,,,,,,,,,5.89,3.64,4.63*19
$GPGSV,1,1,04,12,71,276,29,14,30,307,27,24,72,170,27,25,30,266,38*7A
$GLGSV,2,1,05,68,07,254,,69,20,302,31,77,47,105,18,78,68,331,*69
$GLGSV,2,2,05,79,24,305,39*54
$GNGLL,5212.87803,N,02110.59820,E,232917.20,A,A*7D
$GNRMC,232917.40,A,5212.87805,N,02110.59819,E,0.715,,011215,,,A*6B
$GNVTG,,T,,M,0.715,N,1.325,K,A*3B
$GNGGA,232917.40,5212.87805,N,02110.59819,E,1,06,3.64,90.8,M,34.1,M,,*72
$GNGSA,A,3,14,24,12,25,,,,,,,,,5.89,3.64,4.63*1F
$GNGSA,A,3,79,69,,,,,,,,,,,5.89,3.64,4.63*19
$GPGSV,1,1,04,12,71,276,29,14,30,307,27,24,72,170,27,25,30,266,38*7A
$GLGSV,2,1,05,68,07,254,,69,20,302,32,77,47,105,18,78,68,331,*6A
$GLGSV,2,2,05,79,24,305,39*54
$GNGLL,5212.87805,N,02110.59819,E,232917.40,A,A*77
$GNRMC,232917.60,A,5212.87805,N,02110.59822,E,0.714,,011215,,,A*60
$GNVTG,,T,,M,0.714,N,1.323,K,A*3C
$GNGGA,232917.60,5212.87805,N,02110.59822,E,1,06,3.64,90.7,M,34.1,M,,*77
$GNGSA,A,3,14,24,12,25,,,,,,,,,5.89,3.64,4.63*1F
$GNGSA,A,3,79,69,,,,,,,,,,,5.89,3.64,4.63*19
$GPGSV,1,1,04,12,71,276,29,14,30,307,27,24,72,170,27,25,30,266,38*7A
$GLGSV,2,1,05,68,07,254,,69,20,302,31,77,47,105,18,78,68,331,*69
$GLGSV,2,2,05,79,24,305,39*54
$GNGLL,5212.87805,N,02110.59822,E,232917.60,A,A*7D
$GNRMC,232917.80,A,5212.87806,N,02110.59820,E,0.672,,011215,,,A*6E
$GNVTG,,T,,M,0.672,N,1.245,K,A*3C
$GNGGA,232917.80,5212.87806,N,02110.59820,E,1,06,3.64,90.6,M,34.1,M,,*79
$GNGSA,A,3,14,24,12,25,,,,,,,,,5.89,3.64,4.63*1F
$GNGSA,A,3,79,69,,,,,,,,,,,5.89,3.64,4.63*19
$GPGSV,1,1,04,12,71,276,29,14,30,307,27,24,72,170,28,25,30,266,38*75
$GLGSV,2,1,05,68,07,254,,69,20,302,31,77,47,105,18,78,68,331,*69
$GLGSV,2,2,05,79,24,305,39*54
$GNGLL,5212.87806,N,02110.59820,E,232917.80,A,A*72
$GNRMC,232918.00,A,5212.87808,N,02110.59814,E,0.642,,011215,,,A*63
$GNVTG,,T,,M,0.642,N,1.189,K,A*3C
$GNGGA,232918.00,5212.87808,N,02110.59814,E,1,06,3.64,90.7,M,34.1,M,,*76
$GNGSA,A,3,14,24,12,25,,,,,,,,,5.89,3.64,4.63*1F
$GNGSA,A,3,79,69,,,,,,,,,,,5.89,3.64,4.63*19
$GPGSV,1,1,04,12,71,276,29,14,30,307,27,24,72,170,28,25,30,266,38*75
$GLGSV,2,1,05,68,07,254,,69,20,302,31,77,47,105,17,78,68,331,*66
$GLGSV,2,2,05,79,24,305,39*54
$GNGLL,5212.87808,N,02110.59814,E,232918.00,A,A*7C
$GNRMC,232918.20,A,5212.87808,N,02110.59815,E,0.609,,011215,,,A*6F
$GNVTG,,T,,M,0.609,N,1.128,K,A*38
